{
"type": "FeatureCollection",
"crs": { "type": "name", "properties": { "name": "urn:ogc:def:crs:OGC:1.3:CRS84" } },
"features": [
{ "type": "Feature", "properties": { "name": "Wembley Library", "address1": null, "address2": null, "address3": null, "borough_name": "Brent", "website": null, "os_addressbase_uprn": null, "borough_code": "E09000005", "ward_2022_name": "Wembley Park", "ward_2022_code": "E05013516", "latitude": 51.55840914, "longitude": -0.27988313, "easting": 519339.8475, "northing": 185793.3494 }, "geometry": { "type": "Point", "coordinates": [ -0.27988313, 51.55840914 ] } },
{ "type": "Feature", "properties": { "name": "Kilburn", "address1": null, "address2": null, "address3": null, "borough_name": "Brent", "website": null, "os_addressbase_uprn": 202046410.0, "borough_code": "E09000005", "ward_2022_name": "Queens Park", "ward_2022_code": "E05013507", "latitude": 51.53460692, "longitude": -0.203802273, "easting": 524678.5649, "northing": 183273.2007 }, "geometry": { "type": "Point", "coordinates": [ -0.203802273, 51.53460692 ] } },
{ "type": "Feature", "properties": { "name": "Bradmore Green", "address1": null, "address2": null, "address3": null, "borough_name": "Croydon", "website": null, "os_addressbase_uprn": 200000000000.0, "borough_code": "E09000008", "ward_2022_name": "Old Coulsdon", "ward_2022_code": "E05011474", "latitude": 51.30703271, "longitude": -0.12240494, "easting": 530972.108, "northing": 158108.6541 }, "geometry": { "type": "Point", "coordinates": [ -0.12240494, 51.30703271 ] } },
{ "type": "Feature", "properties": { "name": "Biggin Hill Memorial Library and Pool", "address1": null, "address2": null, "address3": null, "borough_name": "Bromley", "website": null, "os_addressbase_uprn": 10070007971.0, "borough_code": "E09000006", "ward_2022_name": "Biggin Hill", "ward_2022_code": "E05013989", "latitude": 51.31170065, "longitude": 0.036318182, "easting": 542020.3836, "northing": 158922.5458 }, "geometry": { "type": "Point", "coordinates": [ 0.036318182, 51.31170065 ] } },
{ "type": "Feature", "properties": { "name": "Coulsdon", "address1": null, "address2": null, "address3": null, "borough_name": "Croydon", "website": null, "os_addressbase_uprn": 100000000000.0, "borough_code": "E09000008", "ward_2022_name": "Coulsdon Town", "ward_2022_code": "E05011466", "latitude": 51.31947203, "longitude": -0.13709679, "easting": 529913.0368, "northing": 159465.8282 }, "geometry": { "type": "Point", "coordinates": [ -0.13709679, 51.31947203 ] } },
{ "type": "Feature", "properties": { "name": "Purley", "address1": null, "address2": null, "address3": null, "borough_name": "Croydon", "website": null, "os_addressbase_uprn": 200000000000.0, "borough_code": "E09000008", "ward_2022_name": "Purley & Woodcote", "ward_2022_code": "E05011476", "latitude": 51.33861472, "longitude": -0.117094012, "easting": 531252.2061, "northing": 161629.9606 }, "geometry": { "type": "Point", "coordinates": [ -0.117094012, 51.33861472 ] } },
{ "type": "Feature", "properties": { "name": "Sanderstead", "address1": null, "address2": null, "address3": null, "borough_name": "Croydon", "website": null, "os_addressbase_uprn": 200000000000.0, "borough_code": "E09000008", "ward_2022_name": "Sanderstead", "ward_2022_code": "E05011478", "latitude": 51.34028969, "longitude": -0.083955297, "easting": 533555.4595, "northing": 161875.9689 }, "geometry": { "type": "Point", "coordinates": [ -0.083955297, 51.34028969 ] } },
{ "type": "Feature", "properties": { "name": "New Addington", "address1": null, "address2": null, "address3": null, "borough_name": "Croydon", "website": null, "os_addressbase_uprn": 100000000000.0, "borough_code": "E09000008", "ward_2022_name": "New Addington South", "ward_2022_code": "E05011471", "latitude": 51.34039632, "longitude": -0.014765878, "easting": 538374.0064, "northing": 162015.8852 }, "geometry": { "type": "Point", "coordinates": [ -0.014765878, 51.34039632 ] } },
{ "type": "Feature", "properties": { "name": "Selsdon", "address1": null, "address2": null, "address3": null, "borough_name": "Croydon", "website": null, "os_addressbase_uprn": 10014054952.0, "borough_code": "E09000008", "ward_2022_name": "Selsdon Vale & Forestdale", "ward_2022_code": "E05011481", "latitude": 51.34193161, "longitude": -0.060767012, "easting": 535165.6722, "northing": 162100.9893 }, "geometry": { "type": "Point", "coordinates": [ -0.060767012, 51.34193161 ] } },
{ "type": "Feature", "properties": { "name": "Library @ the Phoenix Centre", "address1": null, "address2": null, "address3": null, "borough_name": "Sutton", "website": null, "os_addressbase_uprn": 5870113095.0, "borough_code": "E09000029", "ward_2022_name": "South Beddington & Roundshaw", "ward_2022_code": "E05013763", "latitude": 51.35268985, "longitude": -0.131684671, "easting": 530196.1143, "northing": 163169.1442 }, "geometry": { "type": "Point", "coordinates": [ -0.131684671, 51.35268985 ] } },
{ "type": "Feature", "properties": { "name": "Wallington Library", "address1": null, "address2": null, "address3": null, "borough_name": "Sutton", "website": null, "os_addressbase_uprn": 5870076858.0, "borough_code": "E09000029", "ward_2022_name": "Wallington South", "ward_2022_code": "E05013771", "latitude": 51.35732129, "longitude": -0.149222392, "easting": 528961.9692000001, "northing": 163653.2348 }, "geometry": { "type": "Point", "coordinates": [ -0.149222392, 51.35732129 ] } },
{ "type": "Feature", "properties": { "name": "Cheam Library", "address1": null, "address2": null, "address3": null, "borough_name": "Sutton", "website": null, "os_addressbase_uprn": 5870018019.0, "borough_code": "E09000029", "ward_2022_name": "Cheam", "ward_2022_code": "E05013758", "latitude": 51.35957626, "longitude": -0.215126355, "easting": 524367.4118, "northing": 163790.2777 }, "geometry": { "type": "Point", "coordinates": [ -0.215126355, 51.35957626 ] } },
{ "type": "Feature", "properties": { "name": "Sutton Central Library", "address1": null, "address2": null, "address3": null, "borough_name": "Sutton", "website": null, "os_addressbase_uprn": 5870113864.0, "borough_code": "E09000029", "ward_2022_name": "Sutton Central", "ward_2022_code": "E05013765", "latitude": 51.36154844, "longitude": -0.193586833, "easting": 525861.5924, "northing": 164046.3156 }, "geometry": { "type": "Point", "coordinates": [ -0.193586833, 51.36154844 ] } },
{ "type": "Feature", "properties": { "name": "Hook and Chessington Library", "address1": null, "address2": null, "address3": null, "borough_name": "Kingston upon Thames", "website": null, "os_addressbase_uprn": 10091803267.0, "borough_code": "E09000021", "ward_2022_name": "Hook & Chessington North", "ward_2022_code": "E05013935", "latitude": 51.36739709, "longitude": -0.30447708, "easting": 518126.7495, "northing": 164512.4416 }, "geometry": { "type": "Point", "coordinates": [ -0.30447708, 51.36739709 ] } },
{ "type": "Feature", "properties": { "name": "Library @ Westcroft Centre", "address1": null, "address2": null, "address3": null, "borough_name": "Sutton", "website": null, "os_addressbase_uprn": 5870122731.0, "borough_code": "E09000029", "ward_2022_name": "Wallington North", "ward_2022_code": "E05013770", "latitude": 51.36742881, "longitude": -0.156544791, "easting": 528423.9084, "northing": 164764.3509 }, "geometry": { "type": "Point", "coordinates": [ -0.156544791, 51.36742881 ] } },
{ "type": "Feature", "properties": { "name": "Croydon central library", "address1": null, "address2": null, "address3": null, "borough_name": "Croydon", "website": null, "os_addressbase_uprn": 100000000000.0, "borough_code": "E09000008", "ward_2022_name": "Fairfield", "ward_2022_code": "E05011468", "latitude": 51.37138431, "longitude": -0.097931813, "easting": 532492.4014, "northing": 165308.3352 }, "geometry": { "type": "Point", "coordinates": [ -0.097931813, 51.37138431 ] } },
{ "type": "Feature", "properties": { "name": "Worcester Park Library", "address1": null, "address2": null, "address3": null, "borough_name": "Sutton", "website": null, "os_addressbase_uprn": 5870109125.0, "borough_code": "E09000029", "ward_2022_name": "Worcester Park North", "ward_2022_code": "E05013772", "latitude": 51.37753233, "longitude": -0.239807077, "easting": 522601.2576, "northing": 165745.5303 }, "geometry": { "type": "Point", "coordinates": [ -0.239807077, 51.37753233 ] } },
{ "type": "Feature", "properties": { "name": "Shirley", "address1": null, "address2": null, "address3": null, "borough_name": "Croydon", "website": null, "os_addressbase_uprn": 100000000000.0, "borough_code": "E09000008", "ward_2022_name": "Shirley South", "ward_2022_code": "E05011483", "latitude": 51.37465273, "longitude": -0.043548174, "easting": 536267.8069, "northing": 165771.4392 }, "geometry": { "type": "Point", "coordinates": [ -0.043548174, 51.37465273 ] } },
{ "type": "Feature", "properties": { "name": "West Wickham Library", "address1": null, "address2": null, "address3": null, "borough_name": "Bromley", "website": null, "os_addressbase_uprn": 100000000000.0, "borough_code": "E09000006", "ward_2022_name": "West Wickham", "ward_2022_code": "E05014008", "latitude": 51.37533193, "longitude": -0.012306129, "easting": 538440.0224, "northing": 165905.3481 }, "geometry": { "type": "Point", "coordinates": [ -0.012306129, 51.37533193 ] } },
{ "type": "Feature", "properties": { "name": "Library @ The Life Centre", "address1": null, "address2": null, "address3": null, "borough_name": "Sutton", "website": null, "os_addressbase_uprn": 5870120544.0, "borough_code": "E09000029", "ward_2022_name": "Sutton North", "ward_2022_code": "E05013766", "latitude": 51.37837931, "longitude": -0.200253584, "easting": 525351.5527, "northing": 165906.5242 }, "geometry": { "type": "Point", "coordinates": [ -0.200253584, 51.37837931 ] } },
{ "type": "Feature", "properties": { "name": "Tolworth Community Library", "address1": null, "address2": null, "address3": null, "borough_name": "Kingston upon Thames", "website": null, "os_addressbase_uprn": 128002519.0, "borough_code": "E09000021", "ward_2022_name": "Alexandra", "ward_2022_code": "E05013928", "latitude": 51.3805588, "longitude": -0.28069395, "easting": 519747.9629, "northing": 166014.573 }, "geometry": { "type": "Point", "coordinates": [ -0.28069395, 51.3805588 ] } },
{ "type": "Feature", "properties": { "name": "Hayes Library", "address1": null, "address2": null, "address3": null, "borough_name": "Bromley", "website": null, "os_addressbase_uprn": 100000000000.0, "borough_code": "E09000006", "ward_2022_name": "Hayes & Coney Hall", "ward_2022_code": "E05013998", "latitude": 51.37686239, "longitude": 0.019678625, "easting": 540661.3202, "northing": 166136.3177 }, "geometry": { "type": "Point", "coordinates": [ 0.019678625, 51.37686239 ] } },
{ "type": "Feature", "properties": { "name": "Orpington Library", "address1": null, "address2": null, "address3": null, "borough_name": "Bromley", "website": null, "os_addressbase_uprn": 10070009943.0, "borough_code": "E09000006", "ward_2022_name": "Orpington", "ward_2022_code": "E05014001", "latitude": 51.375607, "longitude": 0.102773528, "easting": 546448.1007, "northing": 166159.2581 }, "geometry": { "type": "Point", "coordinates": [ 0.102773528, 51.375607 ] } },
{ "type": "Feature", "properties": { "name": "Old Malden Library", "address1": null, "address2": null, "address3": null, "borough_name": "Kingston upon Thames", "website": null, "os_addressbase_uprn": 128004320.0, "borough_code": "E09000021", "ward_2022_name": "Old Malden", "ward_2022_code": "E05013942", "latitude": 51.38323859, "longitude": -0.253314099, "easting": 521646.1724, "northing": 166357.5922 }, "geometry": { "type": "Point", "coordinates": [ -0.253314099, 51.38323859 ] } },
{ "type": "Feature", "properties": { "name": "Ashburton", "address1": null, "address2": null, "address3": null, "borough_name": "Croydon", "website": null, "os_addressbase_uprn": 10014052814.0, "borough_code": "E09000008", "ward_2022_name": "Addiscombe East", "ward_2022_code": "E05011462", "latitude": 51.38255158, "longitude": -0.061536706, "easting": 534992.6739000001, "northing": 166616.5242 }, "geometry": { "type": "Point", "coordinates": [ -0.061536706, 51.38255158 ] } },
{ "type": "Feature", "properties": { "name": "The Circle Library", "address1": null, "address2": null, "address3": null, "borough_name": "Sutton", "website": null, "os_addressbase_uprn": 5870120398.0, "borough_code": "E09000029", "ward_2022_name": "St Helier East", "ward_2022_code": "E05013761", "latitude": 51.38506086, "longitude": -0.172897523, "easting": 527236.7644, "northing": 166696.599 }, "geometry": { "type": "Point", "coordinates": [ -0.172897523, 51.38506086 ] } },
{ "type": "Feature", "properties": { "name": "Broad Green", "address1": null, "address2": null, "address3": null, "borough_name": "Croydon", "website": null, "os_addressbase_uprn": 10000104509.0, "borough_code": "E09000008", "ward_2022_name": "Broad Green", "ward_2022_code": "E05011465", "latitude": 51.38485402, "longitude": -0.115555759, "easting": 531227.2638, "northing": 166774.523 }, "geometry": { "type": "Point", "coordinates": [ -0.115555759, 51.38485402 ] } },
{ "type": "Feature", "properties": { "name": "Surbiton Library", "address1": null, "address2": null, "address3": null, "borough_name": "Kingston upon Thames", "website": null, "os_addressbase_uprn": 128006816.0, "borough_code": "E09000021", "ward_2022_name": "Surbiton Hill", "ward_2022_code": "E05013944", "latitude": 51.39228094, "longitude": -0.296326317, "easting": 518629.8755, "northing": 167292.6945 }, "geometry": { "type": "Point", "coordinates": [ -0.296326317, 51.39228094 ] } },
{ "type": "Feature", "properties": { "name": "Southborough Library", "address1": null, "address2": null, "address3": null, "borough_name": "Bromley", "website": null, "os_addressbase_uprn": 100000000000.0, "borough_code": "E09000006", "ward_2022_name": "Bromley Common & Holwood", "ward_2022_code": "E05013990", "latitude": 51.38938336, "longitude": 0.044998489, "easting": 542384.6044, "northing": 167577.4841 }, "geometry": { "type": "Point", "coordinates": [ 0.044998489, 51.38938336 ] } },
{ "type": "Feature", "properties": { "name": "Petts Wood Library", "address1": null, "address2": null, "address3": null, "borough_name": "Bromley", "website": null, "os_addressbase_uprn": 100000000000.0, "borough_code": "E09000006", "ward_2022_name": "Petts Wood & Knoll", "ward_2022_code": "E05014003", "latitude": 51.38948409, "longitude": 0.072531624, "easting": 544299.8675000001, "northing": 167642.4634 }, "geometry": { "type": "Point", "coordinates": [ 0.072531624, 51.38948409 ] } },
{ "type": "Feature", "properties": { "name": "West Barnes Library", "address1": null, "address2": null, "address3": null, "borough_name": "Merton", "website": null, "os_addressbase_uprn": 48085264.0, "borough_code": "E09000024", "ward_2022_name": "West Barnes", "ward_2022_code": "E05013827", "latitude": 51.39463987, "longitude": -0.237525903, "easting": 522714.3057, "northing": 167651.716 }, "geometry": { "type": "Point", "coordinates": [ -0.237525903, 51.39463987 ] } },
{ "type": "Feature", "properties": { "name": "New Malden Library", "address1": null, "address2": null, "address3": null, "borough_name": "Kingston upon Thames", "website": null, "os_addressbase_uprn": 128010803.0, "borough_code": "E09000021", "ward_2022_name": "New Malden Village", "ward_2022_code": "E05013940", "latitude": 51.3987777, "longitude": -0.259235194, "easting": 521193.1577, "northing": 168075.7613 }, "geometry": { "type": "Point", "coordinates": [ -0.259235194, 51.3987777 ] } },
{ "type": "Feature", "properties": { "name": "Thornton Heath", "address1": null, "address2": null, "address3": null, "borough_name": "Croydon", "website": null, "os_addressbase_uprn": 200000000000.0, "borough_code": "E09000008", "ward_2022_name": "Bensham Manor", "ward_2022_code": "E05011464", "latitude": 51.3963774, "longitude": -0.103997406, "easting": 531998.337, "northing": 168076.6336 }, "geometry": { "type": "Point", "coordinates": [ -0.103997406, 51.3963774 ] } },
{ "type": "Feature", "properties": { "name": "South Norwood", "address1": null, "address2": null, "address3": null, "borough_name": "Croydon", "website": null, "os_addressbase_uprn": 200000000000.0, "borough_code": "E09000008", "ward_2022_name": "South Norwood", "ward_2022_code": "E05011485", "latitude": 51.39677584, "longitude": -0.077124186, "easting": 533866.5769, "northing": 168169.6617 }, "geometry": { "type": "Point", "coordinates": [ -0.077124186, 51.39677584 ] } },
{ "type": "Feature", "properties": { "name": "Pollards Hill Library", "address1": null, "address2": null, "address3": null, "borough_name": "Merton", "website": null, "os_addressbase_uprn": 48065103.0, "borough_code": "E09000024", "ward_2022_name": "Pollards Hill", "ward_2022_code": "E05013821", "latitude": 51.3995746, "longitude": -0.13027904, "easting": 530161.0005, "northing": 168385.2342 }, "geometry": { "type": "Point", "coordinates": [ -0.13027904, 51.3995746 ] } },
{ "type": "Feature", "properties": { "name": "Morden Library", "address1": null, "address2": null, "address3": null, "borough_name": "Merton", "website": null, "os_addressbase_uprn": 48083350.0, "borough_code": "E09000024", "ward_2022_name": "St Helier", "ward_2022_code": "E05013824", "latitude": 51.40100796, "longitude": -0.194447903, "easting": 525693.6152, "northing": 168432.7952 }, "geometry": { "type": "Point", "coordinates": [ -0.194447903, 51.40100796 ] } },
{ "type": "Feature", "properties": { "name": "Shortlands Library", "address1": null, "address2": null, "address3": null, "borough_name": "Bromley", "website": null, "os_addressbase_uprn": 100000000000.0, "borough_code": "E09000006", "ward_2022_name": "Shortlands & Park Langley", "ward_2022_code": "E05014005", "latitude": 51.39924941, "longitude": -0.005589835, "easting": 538835.1715000001, "northing": 168577.7252 }, "geometry": { "type": "Point", "coordinates": [ -0.005589835, 51.39924941 ] } },
{ "type": "Feature", "properties": { "name": "Norbury", "address1": null, "address2": null, "address3": null, "borough_name": "Croydon", "website": null, "os_addressbase_uprn": 100000000000.0, "borough_code": "E09000008", "ward_2022_name": "Norbury & Pollards Hill", "ward_2022_code": "E05011472", "latitude": 51.40507418, "longitude": -0.119052849, "easting": 530926.1783, "northing": 169016.7576 }, "geometry": { "type": "Point", "coordinates": [ -0.119052849, 51.40507418 ] } },
{ "type": "Feature", "properties": { "name": "Bromley Central Library", "address1": null, "address2": null, "address3": null, "borough_name": "Bromley", "website": null, "os_addressbase_uprn": 100000000000.0, "borough_code": "E09000006", "ward_2022_name": "Bromley Town", "ward_2022_code": "E05013991", "latitude": 51.40324078, "longitude": 0.016066784, "easting": 540329.3874, "northing": 169062.757 }, "geometry": { "type": "Point", "coordinates": [ 0.016066784, 51.40324078 ] } },
{ "type": "Feature", "properties": { "name": "Kingston Library", "address1": null, "address2": null, "address3": null, "borough_name": "Kingston upon Thames", "website": null, "os_addressbase_uprn": 128019808.0, "borough_code": "E09000021", "ward_2022_name": "Kingston Town", "ward_2022_code": "E05013938", "latitude": 51.40882739, "longitude": -0.298688099, "easting": 518422.915, "northing": 169128.8386 }, "geometry": { "type": "Point", "coordinates": [ -0.298688099, 51.40882739 ] } },
{ "type": "Feature", "properties": { "name": "Raynes Park Library", "address1": null, "address2": null, "address3": null, "borough_name": "Merton", "website": null, "os_addressbase_uprn": 48128562.0, "borough_code": "E09000024", "ward_2022_name": "Raynes Park", "ward_2022_code": "E05013823", "latitude": 51.40858096, "longitude": -0.226221534, "easting": 523463.1978, "northing": 169220.9564 }, "geometry": { "type": "Point", "coordinates": [ -0.226221534, 51.40858096 ] } },
{ "type": "Feature", "properties": { "name": "Mitcham Library", "address1": null, "address2": null, "address3": null, "borough_name": "Merton", "website": null, "os_addressbase_uprn": 48083196.0, "borough_code": "E09000024", "ward_2022_name": "Figge's Marsh", "ward_2022_code": "E05013814", "latitude": 51.40810347, "longitude": -0.160877126, "easting": 528008.8531, "northing": 169279.8846 }, "geometry": { "type": "Point", "coordinates": [ -0.160877126, 51.40810347 ] } },
{ "type": "Feature", "properties": { "name": "St Pauls Cray Library", "address1": null, "address2": null, "address3": null, "borough_name": "Bromley", "website": null, "os_addressbase_uprn": 100000000000.0, "borough_code": "E09000006", "ward_2022_name": "St Paul's Cray", "ward_2022_code": "E05014007", "latitude": 51.40401746, "longitude": 0.104867667, "easting": 546503.1308, "northing": 169322.7341 }, "geometry": { "type": "Point", "coordinates": [ 0.104867667, 51.40401746 ] } },
{ "type": "Feature", "properties": { "name": "Beckenham Library", "address1": null, "address2": null, "address3": null, "borough_name": "Bromley", "website": null, "os_addressbase_uprn": 10003628986.0, "borough_code": "E09000006", "ward_2022_name": "Clock House", "ward_2022_code": "E05013994", "latitude": 51.40810746, "longitude": -0.03534684, "easting": 536738.8963, "northing": 169506.8684 }, "geometry": { "type": "Point", "coordinates": [ -0.03534684, 51.40810746 ] } },
{ "type": "Feature", "properties": { "name": "Hampton", "address1": null, "address2": null, "address3": null, "borough_name": "Richmond upon Thames", "website": null, "os_addressbase_uprn": 100000000000.0, "borough_code": "E09000027", "ward_2022_name": "Hampton", "ward_2022_code": "E05013778", "latitude": 51.41335784, "longitude": -0.368733087, "easting": 513540.3371, "northing": 169521.8615 }, "geometry": { "type": "Point", "coordinates": [ -0.368733087, 51.41335784 ] } },
{ "type": "Feature", "properties": { "name": "Hampton Wick", "address1": null, "address2": null, "address3": null, "borough_name": "Richmond upon Thames", "website": null, "os_addressbase_uprn": 10002251905.0, "borough_code": "E09000027", "ward_2022_name": "Hampton Wick & South Teddington", "ward_2022_code": "E05013780", "latitude": 51.41327031, "longitude": -0.311754655, "easting": 517502.814, "northing": 169601.8922 }, "geometry": { "type": "Point", "coordinates": [ -0.311754655, 51.41327031 ] } },
{ "type": "Feature", "properties": { "name": "Penge Library", "address1": null, "address2": null, "address3": null, "borough_name": "Bromley", "website": null, "os_addressbase_uprn": 10070007380.0, "borough_code": "E09000006", "ward_2022_name": "Penge & Cator", "ward_2022_code": "E05014002", "latitude": 51.41339872, "longitude": -0.049516924, "easting": 535737.7837, "northing": 170068.9349 }, "geometry": { "type": "Point", "coordinates": [ -0.049516924, 51.41339872 ] } },
{ "type": "Feature", "properties": { "name": "Colliers Wood Library", "address1": null, "address2": null, "address3": null, "borough_name": "Merton", "website": null, "os_addressbase_uprn": 48121555.0, "borough_code": "E09000024", "ward_2022_name": "Colliers Wood", "ward_2022_code": "E05013812", "latitude": 51.41810235, "longitude": -0.175888599, "easting": 526937.2148, "northing": 170365.6536 }, "geometry": { "type": "Point", "coordinates": [ -0.175888599, 51.41810235 ] } },
{ "type": "Feature", "properties": { "name": "Upper Norwood", "address1": null, "address2": null, "address3": null, "borough_name": "Croydon", "website": null, "os_addressbase_uprn": 10091838065.0, "borough_code": "E09000008", "ward_2022_name": "Crystal Palace & Upper Norwood", "ward_2022_code": "E05011467", "latitude": 51.4195192, "longitude": -0.079751385, "easting": 533617.5346, "northing": 170693.9771 }, "geometry": { "type": "Point", "coordinates": [ -0.079751385, 51.4195192 ] } },
{ "type": "Feature", "properties": { "name": "Wimbledon Library", "address1": null, "address2": null, "address3": null, "borough_name": "Merton", "website": null, "os_addressbase_uprn": 48127190.0, "borough_code": "E09000024", "ward_2022_name": "Hillside", "ward_2022_code": "E05013816", "latitude": 51.42192157, "longitude": -0.206383148, "easting": 524806.5328, "northing": 170738.0387 }, "geometry": { "type": "Point", "coordinates": [ -0.206383148, 51.42192157 ] } },
{ "type": "Feature", "properties": { "name": "Burnt Ash Library", "address1": null, "address2": null, "address3": null, "borough_name": "Bromley", "website": null, "os_addressbase_uprn": 100000000000.0, "borough_code": "E09000006", "ward_2022_name": "Plaistow", "ward_2022_code": "E05014004", "latitude": 51.4192948, "longitude": 0.021290019, "easting": 540643.3959, "northing": 170857.949 }, "geometry": { "type": "Point", "coordinates": [ 0.021290019, 51.4192948 ] } },
{ "type": "Feature", "properties": { "name": "Hampton Hill", "address1": null, "address2": null, "address3": null, "borough_name": "Richmond upon Thames", "website": null, "os_addressbase_uprn": 10024344272.0, "borough_code": "E09000027", "ward_2022_name": "Fulwell & Hampton Hill", "ward_2022_code": "E05013776", "latitude": 51.4259997, "longitude": -0.354371646, "easting": 514507.4558, "northing": 170950.0281 }, "geometry": { "type": "Point", "coordinates": [ -0.354371646, 51.4259997 ] } },
{ "type": "Feature", "properties": { "name": "Chislehurst Library", "address1": null, "address2": null, "address3": null, "borough_name": "Bromley", "website": null, "os_addressbase_uprn": 100000000000.0, "borough_code": "E09000006", "ward_2022_name": "Chislehurst", "ward_2022_code": "E05013993", "latitude": 51.41951611, "longitude": 0.066352567, "easting": 543775.8361, "northing": 170969.9055 }, "geometry": { "type": "Point", "coordinates": [ 0.066352567, 51.41951611 ] } },
{ "type": "Feature", "properties": { "name": "Tudor Drive Library", "address1": null, "address2": null, "address3": null, "borough_name": "Kingston upon Thames", "website": null, "os_addressbase_uprn": 128039997.0, "borough_code": "E09000021", "ward_2022_name": "Tudor", "ward_2022_code": "E05013946", "latitude": 51.42580323, "longitude": -0.295942865, "easting": 518569.8976, "northing": 171021.0724 }, "geometry": { "type": "Point", "coordinates": [ -0.295942865, 51.42580323 ] } },
{ "type": "Feature", "properties": { "name": "Teddington", "address1": null, "address2": null, "address3": null, "borough_name": "Richmond upon Thames", "website": null, "os_addressbase_uprn": 10002264575.0, "borough_code": "E09000027", "ward_2022_name": "Teddington", "ward_2022_code": "E05013788", "latitude": 51.42722399, "longitude": -0.332819999, "easting": 516002.6432, "northing": 171120.0657 }, "geometry": { "type": "Point", "coordinates": [ -0.332819999, 51.42722399 ] } },
{ "type": "Feature", "properties": { "name": "Tooting Library", "address1": null, "address2": null, "address3": null, "borough_name": "Wandsworth", "website": null, "os_addressbase_uprn": 121014131.0, "borough_code": "E09000032", "ward_2022_name": "Tooting Broadway", "ward_2022_code": "E05014024", "latitude": 51.42603474, "longitude": -0.164185342, "easting": 527728.8392, "northing": 171268.043 }, "geometry": { "type": "Point", "coordinates": [ -0.164185342, 51.42603474 ] } },
{ "type": "Feature", "properties": { "name": "Sydenham community library service", "address1": null, "address2": null, "address3": null, "borough_name": "Lewisham", "website": null, "os_addressbase_uprn": 100000000000.0, "borough_code": "E09000023", "ward_2022_name": "Bellingham", "ward_2022_code": "E05013714", "latitude": 51.42640821, "longitude": -0.039007332, "easting": 536429.8866, "northing": 171535.0772 }, "geometry": { "type": "Point", "coordinates": [ -0.039007332, 51.42640821 ] } },
{ "type": "Feature", "properties": { "name": "Downham Library", "address1": null, "address2": null, "address3": null, "borough_name": "Lewisham", "website": null, "os_addressbase_uprn": 100000000000.0, "borough_code": "E09000023", "ward_2022_name": "Downham", "ward_2022_code": "E05013720", "latitude": 51.42655123, "longitude": 0.011453184, "easting": 539937.3062, "northing": 171646.0254 }, "geometry": { "type": "Point", "coordinates": [ 0.011453184, 51.42655123 ] } },
{ "type": "Feature", "properties": { "name": "Sidcup Library", "address1": null, "address2": null, "address3": null, "borough_name": "Bexley", "website": null, "os_addressbase_uprn": 100000000000.0, "borough_code": "E09000004", "ward_2022_name": "Sidcup", "ward_2022_code": "E05011230", "latitude": 51.42531937, "longitude": 0.106637863, "easting": 546558.1523, "northing": 171694.9975 }, "geometry": { "type": "Point", "coordinates": [ 0.106637863, 51.42531937 ] } },
{ "type": "Feature", "properties": { "name": "Kingswood Library", "address1": null, "address2": null, "address3": null, "borough_name": "Southwark", "website": null, "os_addressbase_uprn": 200000000000.0, "borough_code": "E09000028", "ward_2022_name": "Dulwich Wood", "ward_2022_code": "E05011101", "latitude": 51.42992202, "longitude": -0.080120892, "easting": 533561.5367000001, "northing": 171850.0868 }, "geometry": { "type": "Point", "coordinates": [ -0.080120892, 51.42992202 ] } },
{ "type": "Feature", "properties": { "name": "Streatham", "address1": null, "address2": null, "address3": null, "borough_name": "Lambeth", "website": null, "os_addressbase_uprn": 100000000000.0, "borough_code": "E09000022", "ward_2022_name": "Streatham Wells", "ward_2022_code": "E05014116", "latitude": 51.43105845, "longitude": -0.127568076, "easting": 530260.1238, "northing": 171891.0558 }, "geometry": { "type": "Point", "coordinates": [ -0.127568076, 51.43105845 ] } },
{ "type": "Feature", "properties": { "name": "Coldharbour Library", "address1": null, "address2": null, "address3": null, "borough_name": "Greenwich", "website": null, "os_addressbase_uprn": 10010224659.0, "borough_code": "E09000011", "ward_2022_name": "Mottingham, Coldharbour & New Eltham", "ward_2022_code": "E05014086", "latitude": 51.42980097, "longitude": 0.058915383, "easting": 543226.5737, "northing": 172099.0195 }, "geometry": { "type": "Point", "coordinates": [ 0.058915383, 51.42980097 ] } },
{ "type": "Feature", "properties": { "name": "Ham", "address1": null, "address2": null, "address3": null, "borough_name": "Richmond upon Thames", "website": null, "os_addressbase_uprn": 100000000000.0, "borough_code": "E09000027", "ward_2022_name": "Ham, Petersham & Richmond Riverside", "ward_2022_code": "E05013777", "latitude": 51.43737166, "longitude": -0.311671896, "easting": 517446.7741, "northing": 172282.2225 }, "geometry": { "type": "Point", "coordinates": [ -0.311671896, 51.43737166 ] } },
{ "type": "Feature", "properties": { "name": "Hanworth Library", "address1": null, "address2": null, "address3": null, "borough_name": "Hounslow", "website": null, "os_addressbase_uprn": 100000000000.0, "borough_code": "E09000018", "ward_2022_name": "Hanworth Village", "ward_2022_code": "E05013616", "latitude": 51.43983125, "longitude": -0.387346368, "easting": 512181.1756, "northing": 172437.1899 }, "geometry": { "type": "Point", "coordinates": [ -0.387346368, 51.43983125 ] } },
{ "type": "Feature", "properties": { "name": "Forest Hill Library", "address1": null, "address2": null, "address3": null, "borough_name": "Lewisham", "website": null, "os_addressbase_uprn": 100000000000.0, "borough_code": "E09000023", "ward_2022_name": "Forest Hill", "ward_2022_code": "E05013722", "latitude": 51.43537399, "longitude": -0.054595642, "easting": 535319.7639, "northing": 172503.1674 }, "geometry": { "type": "Point", "coordinates": [ -0.054595642, 51.43537399 ] } },
{ "type": "Feature", "properties": { "name": "Grove Park community library service", "address1": null, "address2": null, "address3": null, "borough_name": "Lewisham", "website": null, "os_addressbase_uprn": 100000000000.0, "borough_code": "E09000023", "ward_2022_name": "Grove Park", "ward_2022_code": "E05013723", "latitude": 51.43543627, "longitude": 0.02508199, "easting": 540857.4281, "northing": 172660.1085 }, "geometry": { "type": "Point", "coordinates": [ 0.02508199, 51.43543627 ] } },
{ "type": "Feature", "properties": { "name": "Mottingham Library", "address1": null, "address2": null, "address3": null, "borough_name": "Greenwich", "website": null, "os_addressbase_uprn": 100000000000.0, "borough_code": "E09000011", "ward_2022_name": "Mottingham, Coldharbour & New Eltham", "ward_2022_code": "E05014086", "latitude": 51.43693949, "longitude": 0.045208326, "easting": 542251.5993, "northing": 172866.1064 }, "geometry": { "type": "Point", "coordinates": [ 0.045208326, 51.43693949 ] } },
{ "type": "Feature", "properties": { "name": "Heathfield Library Access Point", "address1": null, "address2": null, "address3": null, "borough_name": "Richmond upon Thames", "website": null, "os_addressbase_uprn": 100000000000.0, "borough_code": "E09000027", "ward_2022_name": "West Twickenham", "ward_2022_code": "E05013790", "latitude": 51.4434674, "longitude": -0.362896718, "easting": 513871.3891, "northing": 172879.2645 }, "geometry": { "type": "Point", "coordinates": [ -0.362896718, 51.4434674 ] } },
{ "type": "Feature", "properties": { "name": "New Eltham Library", "address1": null, "address2": null, "address3": null, "borough_name": "Greenwich", "website": null, "os_addressbase_uprn": 10010197970.0, "borough_code": "E09000011", "ward_2022_name": "Mottingham, Coldharbour & New Eltham", "ward_2022_code": "E05014086", "latitude": 51.43700853, "longitude": 0.072897864, "easting": 544175.8233, "northing": 172927.8955 }, "geometry": { "type": "Point", "coordinates": [ 0.072897864, 51.43700853 ] } },
{ "type": "Feature", "properties": { "name": "Earlsfield Library", "address1": null, "address2": null, "address3": null, "borough_name": "Wandsworth", "website": null, "os_addressbase_uprn": 100000000000.0, "borough_code": "E09000032", "ward_2022_name": "Wandsworth Common", "ward_2022_code": "E05014027", "latitude": 51.44192022, "longitude": -0.185149645, "easting": 526227.707, "northing": 172998.2166 }, "geometry": { "type": "Point", "coordinates": [ -0.185149645, 51.44192022 ] } },
{ "type": "Feature", "properties": { "name": "Feltham Library", "address1": null, "address2": null, "address3": null, "borough_name": "Hounslow", "website": null, "os_addressbase_uprn": 100000000000.0, "borough_code": "E09000018", "ward_2022_name": "Hanworth Park", "ward_2022_code": "E05013615", "latitude": 51.44585041, "longitude": -0.409519872, "easting": 510625.5967, "northing": 173072.9007 }, "geometry": { "type": "Point", "coordinates": [ -0.409519872, 51.44585041 ] } },
{ "type": "Feature", "properties": { "name": "Southfields Library", "address1": null, "address2": null, "address3": null, "borough_name": "Wandsworth", "website": null, "os_addressbase_uprn": 100000000000.0, "borough_code": "E09000032", "ward_2022_name": "West Hill", "ward_2022_code": "E05014029", "latitude": 51.44303209, "longitude": -0.207139118, "easting": 524696.5538, "northing": 173084.2505 }, "geometry": { "type": "Point", "coordinates": [ -0.207139118, 51.44303209 ] } },
{ "type": "Feature", "properties": { "name": "Torridon Road Library", "address1": null, "address2": null, "address3": null, "borough_name": "Lewisham", "website": null, "os_addressbase_uprn": 100000000000.0, "borough_code": "E09000023", "ward_2022_name": "Hither Green", "ward_2022_code": "E05013724", "latitude": 51.44182955, "longitude": 2.12e-05, "easting": 539096.228, "northing": 173323.2133 }, "geometry": { "type": "Point", "coordinates": [ 0.0000212, 51.44182955 ] } },
{ "type": "Feature", "properties": { "name": "Twickenham", "address1": null, "address2": null, "address3": null, "borough_name": "Richmond upon Thames", "website": null, "os_addressbase_uprn": 100000000000.0, "borough_code": "E09000027", "ward_2022_name": "Twickenham Riverside", "ward_2022_code": "E05013789", "latitude": 51.44697104, "longitude": -0.326329333, "easting": 516403.6649, "northing": 173326.3447 }, "geometry": { "type": "Point", "coordinates": [ -0.326329333, 51.44697104 ] } },
{ "type": "Feature", "properties": { "name": "Balham Library", "address1": null, "address2": null, "address3": null, "borough_name": "Wandsworth", "website": null, "os_addressbase_uprn": 100000000000.0, "borough_code": "E09000032", "ward_2022_name": "Balham", "ward_2022_code": "E05014009", "latitude": 51.44496215, "longitude": -0.150761033, "easting": 528608.9439, "northing": 173396.2058 }, "geometry": { "type": "Point", "coordinates": [ -0.150761033, 51.44496215 ] } },
{ "type": "Feature", "properties": { "name": "Catford library", "address1": null, "address2": null, "address3": null, "borough_name": "Lewisham", "website": null, "os_addressbase_uprn": 200000000000.0, "borough_code": "E09000023", "ward_2022_name": "Rushey Green", "ward_2022_code": "E05013730", "latitude": 51.4440966, "longitude": -0.019079052, "easting": 537762.0728, "northing": 173539.2643 }, "geometry": { "type": "Point", "coordinates": [ -0.019079052, 51.4440966 ] } },
{ "type": "Feature", "properties": { "name": "Bexley Community Library", "address1": null, "address2": null, "address3": null, "borough_name": "Bexley", "website": null, "os_addressbase_uprn": 100000000000.0, "borough_code": "E09000004", "ward_2022_name": "St Mary's & St James", "ward_2022_code": "E05011229", "latitude": 51.44224098, "longitude": 0.152449184, "easting": 549687.5446, "northing": 173669.18 }, "geometry": { "type": "Point", "coordinates": [ 0.152449184, 51.44224098 ] } },
{ "type": "Feature", "properties": { "name": "Bedfont Library", "address1": null, "address2": null, "address3": null, "borough_name": "Hounslow", "website": null, "os_addressbase_uprn": 100000000000.0, "borough_code": "E09000018", "ward_2022_name": "Bedfont", "ward_2022_code": "E05013606", "latitude": 51.45154014, "longitude": -0.432661866, "easting": 509003.9087, "northing": 173670.9998 }, "geometry": { "type": "Point", "coordinates": [ -0.432661866, 51.45154014 ] } },
{ "type": "Feature", "properties": { "name": "Roehampton Library", "address1": null, "address2": null, "address3": null, "borough_name": "Wandsworth", "website": null, "os_addressbase_uprn": 100000000000.0, "borough_code": "E09000032", "ward_2022_name": "Roehampton", "ward_2022_code": "E05014017", "latitude": 51.44929376, "longitude": -0.240517105, "easting": 522360.298, "northing": 173724.3405 }, "geometry": { "type": "Point", "coordinates": [ -0.240517105, 51.44929376 ] } },
{ "type": "Feature", "properties": { "name": "Whitton", "address1": null, "address2": null, "address3": null, "borough_name": "Richmond upon Thames", "website": null, "os_addressbase_uprn": 100000000000.0, "borough_code": "E09000027", "ward_2022_name": "Whitton", "ward_2022_code": "E05013791", "latitude": 51.45223366, "longitude": -0.357588317, "easting": 514218.4377, "northing": 173862.3926 }, "geometry": { "type": "Point", "coordinates": [ -0.357588317, 51.45223366 ] } },
{ "type": "Feature", "properties": { "name": "Dulwich Library", "address1": null, "address2": null, "address3": null, "borough_name": "Southwark", "website": null, "os_addressbase_uprn": 200000000000.0, "borough_code": "E09000028", "ward_2022_name": "Dulwich Hill", "ward_2022_code": "E05011099", "latitude": 51.44828683, "longitude": -0.072974201, "easting": 534004.6061, "northing": 173905.28 }, "geometry": { "type": "Point", "coordinates": [ -0.072974201, 51.44828683 ] } },
{ "type": "Feature", "properties": { "name": "Blackfen Community Library", "address1": null, "address2": null, "address3": null, "borough_name": "Bexley", "website": null, "os_addressbase_uprn": 10023305013.0, "borough_code": "E09000004", "ward_2022_name": "Blendon & Penhill", "ward_2022_code": "E05011221", "latitude": 51.44966601, "longitude": 0.106032019, "easting": 546438.1518, "northing": 174401.072 }, "geometry": { "type": "Point", "coordinates": [ 0.106032019, 51.44966601 ] } },
{ "type": "Feature", "properties": { "name": "Eltham Centre Library", "address1": null, "address2": null, "address3": null, "borough_name": "Greenwich", "website": null, "os_addressbase_uprn": 100000000000.0, "borough_code": "E09000011", "ward_2022_name": "Eltham Town & Avery Hill", "ward_2022_code": "E05014079", "latitude": 51.45051273, "longitude": 0.05950408, "easting": 543202.7192000001, "northing": 174403.2846 }, "geometry": { "type": "Point", "coordinates": [ 0.05950408, 51.45051273 ] } },
{ "type": "Feature", "properties": { "name": "Northcote Library", "address1": null, "address2": null, "address3": null, "borough_name": "Wandsworth", "website": null, "os_addressbase_uprn": 100000000000.0, "borough_code": "E09000032", "ward_2022_name": "Northcote", "ward_2022_code": "E05014016", "latitude": 51.45463918, "longitude": -0.162764313, "easting": 527747.869, "northing": 174451.3184 }, "geometry": { "type": "Point", "coordinates": [ -0.162764313, 51.45463918 ] } },
{ "type": "Feature", "properties": { "name": "Wandsworth Town Library", "address1": null, "address2": null, "address3": null, "borough_name": "Wandsworth", "website": null, "os_addressbase_uprn": 121008322.0, "borough_code": "E09000032", "ward_2022_name": "Wandsworth Town", "ward_2022_code": "E05014028", "latitude": 51.45567007, "longitude": -0.190880754, "easting": 525791.6774, "northing": 174517.3574 }, "geometry": { "type": "Point", "coordinates": [ -0.190880754, 51.45567007 ] } },
{ "type": "Feature", "properties": { "name": "Crayford Library", "address1": null, "address2": null, "address3": null, "borough_name": "Bexley", "website": null, "os_addressbase_uprn": 10090792770.0, "borough_code": "E09000004", "ward_2022_name": "Crayford", "ward_2022_code": "E05011222", "latitude": 51.44939192, "longitude": 0.181716274, "easting": 551697.6452, "northing": 174524.5142 }, "geometry": { "type": "Point", "coordinates": [ 0.181716274, 51.44939192 ] } },
{ "type": "Feature", "properties": { "name": "Richmond Information and Reference Library. Richmond ", "address1": null, "address2": null, "address3": null, "borough_name": "Richmond upon Thames", "website": null, "os_addressbase_uprn": 10002264550.0, "borough_code": "E09000027", "ward_2022_name": "South Richmond", "ward_2022_code": "E05013786", "latitude": 51.4583449, "longitude": -0.304851588, "easting": 517866.81, "northing": 174625.4868 }, "geometry": { "type": "Point", "coordinates": [ -0.304851588, 51.4583449 ] } },
{ "type": "Feature", "properties": { "name": "Crofton Park community library service", "address1": null, "address2": null, "address3": null, "borough_name": "Lewisham", "website": null, "os_addressbase_uprn": 100000000000.0, "borough_code": "E09000023", "ward_2022_name": "Crofton Park", "ward_2022_code": "E05013718", "latitude": 51.45492733, "longitude": -0.034704482, "easting": 536643.952, "northing": 174714.3907 }, "geometry": { "type": "Point", "coordinates": [ -0.034704482, 51.45492733 ] } },
{ "type": "Feature", "properties": { "name": "Manor House Library", "address1": null, "address2": null, "address3": null, "borough_name": "Lewisham", "website": null, "os_addressbase_uprn": 100000000000.0, "borough_code": "E09000023", "ward_2022_name": "Lee Green", "ward_2022_code": "E05013726", "latitude": 51.45679923, "longitude": 0.006103015, "easting": 539473.2979, "northing": 174999.381 }, "geometry": { "type": "Point", "coordinates": [ 0.006103015, 51.45679923 ] } },
{ "type": "Feature", "properties": { "name": "Richmond Lending Library", "address1": null, "address2": null, "address3": null, "borough_name": "Richmond upon Thames", "website": null, "os_addressbase_uprn": 10002249444.0, "borough_code": "E09000027", "ward_2022_name": "South Richmond", "ward_2022_code": "E05013786", "latitude": 51.46178601, "longitude": -0.302132551, "easting": 518046.8365, "northing": 175012.5227 }, "geometry": { "type": "Point", "coordinates": [ -0.302132551, 51.46178601 ] } },
{ "type": "Feature", "properties": { "name": "Putney Library", "address1": null, "address2": null, "address3": null, "borough_name": "Wandsworth", "website": null, "os_addressbase_uprn": 100000000000.0, "borough_code": "E09000032", "ward_2022_name": "Thamesfield", "ward_2022_code": "E05014022", "latitude": 51.46127262, "longitude": -0.214314012, "easting": 524148.5215, "northing": 175100.4388 }, "geometry": { "type": "Point", "coordinates": [ -0.214314012, 51.46127262 ] } },
{ "type": "Feature", "properties": { "name": "Central Library", "address1": null, "address2": null, "address3": null, "borough_name": "Bexley", "website": null, "os_addressbase_uprn": 100000000000.0, "borough_code": "E09000004", "ward_2022_name": "Bexleyheath", "ward_2022_code": "E05011219", "latitude": 51.45547478, "longitude": 0.145384246, "easting": 549153.4525, "northing": 175126.3566 }, "geometry": { "type": "Point", "coordinates": [ 0.145384246, 51.45547478 ] } },
{ "type": "Feature", "properties": { "name": "Lewisham Library", "address1": null, "address2": null, "address3": null, "borough_name": "Lewisham", "website": null, "os_addressbase_uprn": 100000000000.0, "borough_code": "E09000023", "ward_2022_name": "Lewisham Central", "ward_2022_code": "E05013727", "latitude": 51.45875667, "longitude": -0.010065265, "easting": 538344.1649, "northing": 175186.4233 }, "geometry": { "type": "Point", "coordinates": [ -0.010065265, 51.45875667 ] } },
{ "type": "Feature", "properties": { "name": "Carnegie library (Herne Hill)", "address1": null, "address2": null, "address3": null, "borough_name": "Lambeth", "website": null, "os_addressbase_uprn": 10091838239.0, "borough_code": "E09000022", "ward_2022_name": "Herne Hill & Loughborough Junction", "ward_2022_code": "E05014104", "latitude": 51.46026675, "longitude": -0.09500123, "easting": 532439.4207, "northing": 175197.3873 }, "geometry": { "type": "Point", "coordinates": [ -0.09500123, 51.46026675 ] } },
{ "type": "Feature", "properties": { "name": "Brixton", "address1": null, "address2": null, "address3": null, "borough_name": "Lambeth", "website": null, "os_addressbase_uprn": 200000000000.0, "borough_code": "E09000022", "ward_2022_name": "Brixton Windrush", "ward_2022_code": "E05014098", "latitude": 51.46058716, "longitude": -0.113142886, "easting": 531178.2654, "northing": 175200.381 }, "geometry": { "type": "Point", "coordinates": [ -0.113142886, 51.46058716 ] } },
{ "type": "Feature", "properties": { "name": "Grove Vale Library", "address1": null, "address2": null, "address3": null, "borough_name": "Southwark", "website": null, "os_addressbase_uprn": 200000000000.0, "borough_code": "E09000028", "ward_2022_name": "Goose Green", "ward_2022_code": "E05011103", "latitude": 51.46109982, "longitude": -0.077718332, "easting": 533637.57, "northing": 175321.4077 }, "geometry": { "type": "Point", "coordinates": [ -0.077718332, 51.46109982 ] } },
{ "type": "Feature", "properties": { "name": "Clapham", "address1": null, "address2": null, "address3": null, "borough_name": "Lambeth", "website": null, "os_addressbase_uprn": 10090197569.0, "borough_code": "E09000022", "ward_2022_name": "Clapham East", "ward_2022_code": "E05014100", "latitude": 51.46259073, "longitude": -0.132070789, "easting": 529857.7442, "northing": 175389.4684 }, "geometry": { "type": "Point", "coordinates": [ -0.132070789, 51.46259073 ] } },
{ "type": "Feature", "properties": { "name": "East Sheen", "address1": null, "address2": null, "address3": null, "borough_name": "Richmond upon Thames", "website": null, "os_addressbase_uprn": 100000000000.0, "borough_code": "E09000027", "ward_2022_name": "East Sheen", "ward_2022_code": "E05013775", "latitude": 51.46489979, "longitude": -0.266021105, "easting": 520547.1188, "northing": 175417.5236 }, "geometry": { "type": "Point", "coordinates": [ -0.266021105, 51.46489979 ] } },
{ "type": "Feature", "properties": { "name": "Battersea Library", "address1": null, "address2": null, "address3": null, "borough_name": "Wandsworth", "website": null, "os_addressbase_uprn": 100000000000.0, "borough_code": "E09000032", "ward_2022_name": "Lavender", "ward_2022_code": "E05014014", "latitude": 51.46351276, "longitude": -0.162566274, "easting": 527736.8867, "northing": 175438.4173 }, "geometry": { "type": "Point", "coordinates": [ -0.162566274, 51.46351276 ] } },
{ "type": "Feature", "properties": { "name": "Isleworth Library", "address1": null, "address2": null, "address3": null, "borough_name": "Hounslow", "website": null, "os_addressbase_uprn": 100000000000.0, "borough_code": "E09000018", "ward_2022_name": "Isleworth", "ward_2022_code": "E05013625", "latitude": 51.46639803, "longitude": -0.328555858, "easting": 516199.6496, "northing": 175483.1799 }, "geometry": { "type": "Point", "coordinates": [ -0.328555858, 51.46639803 ] } },
{ "type": "Feature", "properties": { "name": "Hounslow Library", "address1": null, "address2": null, "address3": null, "borough_name": "Hounslow", "website": null, "os_addressbase_uprn": 100000000000.0, "borough_code": "E09000018", "ward_2022_name": "Hounslow Central", "ward_2022_code": "E05013620", "latitude": 51.4676225, "longitude": -0.361468633, "easting": 513910.5498, "northing": 175567.6844 }, "geometry": { "type": "Point", "coordinates": [ -0.361468633, 51.4676225 ] } },
{ "type": "Feature", "properties": { "name": "Beavers Library", "address1": null, "address2": null, "address3": null, "borough_name": "Hounslow", "website": null, "os_addressbase_uprn": 10093260482.0, "borough_code": "E09000018", "ward_2022_name": "Cranford", "ward_2022_code": "E05013612", "latitude": 51.46972705, "longitude": -0.394852683, "easting": 511586.6547, "northing": 175750.3478 }, "geometry": { "type": "Point", "coordinates": [ -0.394852683, 51.46972705 ] } },
{ "type": "Feature", "properties": { "name": "York Gardens Library", "address1": null, "address2": null, "address3": null, "borough_name": "Wandsworth", "website": null, "os_addressbase_uprn": 10091844398.0, "borough_code": "E09000032", "ward_2022_name": "Falconbrook", "ward_2022_code": "E05014012", "latitude": 51.46671069, "longitude": -0.176145747, "easting": 526784.7928000001, "northing": 175770.4591 }, "geometry": { "type": "Point", "coordinates": [ -0.176145747, 51.46671069 ] } },
{ "type": "Feature", "properties": { "name": "Welling Library", "address1": null, "address2": null, "address3": null, "borough_name": "Bexley", "website": null, "os_addressbase_uprn": 100000000000.0, "borough_code": "E09000004", "ward_2022_name": "Falconwood & Welling", "ward_2022_code": "E05011226", "latitude": 51.46201211, "longitude": 0.107780415, "easting": 546520.0938, "northing": 175777.4293 }, "geometry": { "type": "Point", "coordinates": [ 0.107780415, 51.46201211 ] } },
{ "type": "Feature", "properties": { "name": "Hurlingham and Chelsea School and Community Library ", "address1": null, "address2": null, "address3": null, "borough_name": "Hammersmith and Fulham", "website": null, "os_addressbase_uprn": 34063756.0, "borough_code": "E09000013", "ward_2022_name": "Palace & Hurlingham", "ward_2022_code": "E05013744", "latitude": 51.46730717, "longitude": -0.194927408, "easting": 525478.6583, "northing": 175804.4775 }, "geometry": { "type": "Point", "coordinates": [ -0.194927408, 51.46730717 ] } },
{ "type": "Feature", "properties": { "name": "Nunhead Library", "address1": null, "address2": null, "address3": null, "borough_name": "Southwark", "website": null, "os_addressbase_uprn": 200000000000.0, "borough_code": "E09000028", "ward_2022_name": "Nunhead & Queen's Road", "ward_2022_code": "E05011108", "latitude": 51.46527339, "longitude": -0.058104468, "easting": 534987.7458, "northing": 175821.4703 }, "geometry": { "type": "Point", "coordinates": [ -0.058104468, 51.46527339 ] } },
{ "type": "Feature", "properties": { "name": "Blackheath Village community library service", "address1": null, "address2": null, "address3": null, "borough_name": "Greenwich", "website": null, "os_addressbase_uprn": 100000000000.0, "borough_code": "E09000011", "ward_2022_name": "Blackheath Westcombe", "ward_2022_code": "E05014073", "latitude": 51.46567918, "longitude": 0.011172244, "easting": 539798.3536, "northing": 175996.4802 }, "geometry": { "type": "Point", "coordinates": [ 0.011172244, 51.46567918 ] } },
{ "type": "Feature", "properties": { "name": "Minet", "address1": null, "address2": null, "address3": null, "borough_name": "Lambeth", "website": null, "os_addressbase_uprn": 100000000000.0, "borough_code": "E09000022", "ward_2022_name": "Myatt's Fields", "ward_2022_code": "E05014107", "latitude": 51.47077924, "longitude": -0.103808424, "easting": 531797.3517, "northing": 176350.4918 }, "geometry": { "type": "Point", "coordinates": [ -0.103808424, 51.47077924 ] } },
{ "type": "Feature", "properties": { "name": "Battersea Park Library", "address1": null, "address2": null, "address3": null, "borough_name": "Wandsworth", "website": null, "os_addressbase_uprn": 100000000000.0, "borough_code": "E09000032", "ward_2022_name": "Battersea Park", "ward_2022_code": "E05014010", "latitude": 51.47387352, "longitude": -0.152846626, "easting": 528382.9835, "northing": 176607.5352 }, "geometry": { "type": "Point", "coordinates": [ -0.152846626, 51.47387352 ] } },
{ "type": "Feature", "properties": { "name": "Cranford Library", "address1": null, "address2": null, "address3": null, "borough_name": "Hounslow", "website": null, "os_addressbase_uprn": 100000000000.0, "borough_code": "E09000018", "ward_2022_name": "Cranford", "ward_2022_code": "E05013612", "latitude": 51.47764106, "longitude": -0.404892845, "easting": 510870.1656, "northing": 176615.1801 }, "geometry": { "type": "Point", "coordinates": [ -0.404892845, 51.47764106 ] } },
{ "type": "Feature", "properties": { "name": "Kew", "address1": null, "address2": null, "address3": null, "borough_name": "Richmond upon Thames", "website": null, "os_addressbase_uprn": 100000000000.0, "borough_code": "E09000027", "ward_2022_name": "Kew", "ward_2022_code": "E05013782", "latitude": 51.47599683, "longitude": -0.283069715, "easting": 519334.0082, "northing": 176623.6606 }, "geometry": { "type": "Point", "coordinates": [ -0.283069715, 51.47599683 ] } },
{ "type": "Feature", "properties": { "name": "Peckham Library", "address1": null, "address2": null, "address3": null, "borough_name": "Southwark", "website": null, "os_addressbase_uprn": 200000000000.0, "borough_code": "E09000028", "ward_2022_name": "Rye Lane", "ward_2022_code": "E05011113", "latitude": 51.47386908, "longitude": -0.067762882, "easting": 534291.6626, "northing": 176759.5477 }, "geometry": { "type": "Point", "coordinates": [ -0.067762882, 51.47386908 ] } },
{ "type": "Feature", "properties": { "name": "Fulham", "address1": null, "address2": null, "address3": null, "borough_name": "Hammersmith and Fulham", "website": null, "os_addressbase_uprn": 34044300.0, "borough_code": "E09000013", "ward_2022_name": "Walham Green", "ward_2022_code": "E05013749", "latitude": 51.47675544, "longitude": -0.201107392, "easting": 525023.6285, "northing": 176844.5832 }, "geometry": { "type": "Point", "coordinates": [ -0.201107392, 51.47675544 ] } },
{ "type": "Feature", "properties": { "name": "Camberwell Library", "address1": null, "address2": null, "address3": null, "borough_name": "Southwark", "website": null, "os_addressbase_uprn": 10090749181.0, "borough_code": "E09000028", "ward_2022_name": "St Giles", "ward_2022_code": "E05011115", "latitude": 51.47531156, "longitude": -0.091033138, "easting": 532671.4606, "northing": 176877.544 }, "geometry": { "type": "Point", "coordinates": [ -0.091033138, 51.47531156 ] } },
{ "type": "Feature", "properties": { "name": "New Cross community library service", "address1": null, "address2": null, "address3": null, "borough_name": "Lewisham", "website": null, "os_addressbase_uprn": 100000000000.0, "borough_code": "E09000023", "ward_2022_name": "Brockley", "ward_2022_code": "E05013716", "latitude": 51.47500522, "longitude": -0.03708193, "easting": 536418.9216, "northing": 176942.5922 }, "geometry": { "type": "Point", "coordinates": [ -0.03708193, 51.47500522 ] } },
{ "type": "Feature", "properties": { "name": "North Heath Community Library", "address1": null, "address2": null, "address3": null, "borough_name": "Bexley", "website": null, "os_addressbase_uprn": 10011846473.0, "borough_code": "E09000004", "ward_2022_name": "Northumberland Heath", "ward_2022_code": "E05011228", "latitude": 51.47278049, "longitude": 0.162930989, "easting": 550315.5663, "northing": 177086.5627 }, "geometry": { "type": "Point", "coordinates": [ 0.162930989, 51.47278049 ] } },
{ "type": "Feature", "properties": { "name": "Castelnau", "address1": null, "address2": null, "address3": null, "borough_name": "Richmond upon Thames", "website": null, "os_addressbase_uprn": 100000000000.0, "borough_code": "E09000027", "ward_2022_name": "Barnes", "ward_2022_code": "E05013774", "latitude": 51.47975012, "longitude": -0.23601797, "easting": 522591.3756, "northing": 177118.6427 }, "geometry": { "type": "Point", "coordinates": [ -0.23601797, 51.47975012 ] } },
{ "type": "Feature", "properties": { "name": "Slade Green Community Library", "address1": null, "address2": null, "address3": null, "borough_name": "Bexley", "website": null, "os_addressbase_uprn": 10090794390.0, "borough_code": "E09000004", "ward_2022_name": "Slade Green & Northend", "ward_2022_code": "E05011231", "latitude": 51.47260377, "longitude": 0.192596225, "easting": 552376.2848, "northing": 177128.1937 }, "geometry": { "type": "Point", "coordinates": [ 0.192596225, 51.47260377 ] } },
{ "type": "Feature", "properties": { "name": "Osterley Library", "address1": null, "address2": null, "address3": null, "borough_name": "Hounslow", "website": null, "os_addressbase_uprn": 100000000000.0, "borough_code": "E09000018", "ward_2022_name": "Osterley & Spring Grove", "ward_2022_code": "E05013626", "latitude": 51.48182162, "longitude": -0.344332814, "easting": 515065.0504, "northing": 177173.4449 }, "geometry": { "type": "Point", "coordinates": [ -0.344332814, 51.48182162 ] } },
{ "type": "Feature", "properties": { "name": "Tate South Lambeth", "address1": null, "address2": null, "address3": null, "borough_name": "Lambeth", "website": null, "os_addressbase_uprn": 100000000000.0, "borough_code": "E09000022", "ward_2022_name": "Oval", "ward_2022_code": "E05014108", "latitude": 51.47868673, "longitude": -0.122377153, "easting": 530485.2231, "northing": 177196.5853 }, "geometry": { "type": "Point", "coordinates": [ -0.122377153, 51.47868673 ] } },
{ "type": "Feature", "properties": { "name": "The Library at Deptford Lounge", "address1": null, "address2": null, "address3": null, "borough_name": "Lewisham", "website": null, "os_addressbase_uprn": 10023235598.0, "borough_code": "E09000023", "ward_2022_name": "Deptford", "ward_2022_code": "E05013719", "latitude": 51.4771916, "longitude": -0.022686192, "easting": 537412.0328, "northing": 177212.6275 }, "geometry": { "type": "Point", "coordinates": [ -0.022686192, 51.4771916 ] } },
{ "type": "Feature", "properties": { "name": "Blackheath Library", "address1": null, "address2": null, "address3": null, "borough_name": "Greenwich", "website": null, "os_addressbase_uprn": 100000000000.0, "borough_code": "E09000011", "ward_2022_name": "Blackheath Westcombe", "ward_2022_code": "E05014073", "latitude": 51.47646341, "longitude": 0.02315429, "easting": 540597.4634, "northing": 177218.5941 }, "geometry": { "type": "Point", "coordinates": [ 0.02315429, 51.47646341 ] } },
{ "type": "Feature", "properties": { "name": "West Greenwich Library", "address1": null, "address2": null, "address3": null, "borough_name": "Greenwich", "website": null, "os_addressbase_uprn": 10010200468.0, "borough_code": "E09000011", "ward_2022_name": "Greenwich Park", "ward_2022_code": "E05014081", "latitude": 51.47748419, "longitude": -0.009682215, "easting": 538314.1494, "northing": 177269.6357 }, "geometry": { "type": "Point", "coordinates": [ -0.009682215, 51.47748419 ] } },
{ "type": "Feature", "properties": { "name": "Bostall Community Library", "address1": null, "address2": null, "address3": null, "borough_name": "Bexley", "website": null, "os_addressbase_uprn": 100000000000.0, "borough_code": "E09000004", "ward_2022_name": "West Heath", "ward_2022_code": "E05011233", "latitude": 51.47518169, "longitude": 0.131517747, "easting": 548126.2646, "northing": 177289.5869 }, "geometry": { "type": "Point", "coordinates": [ 0.131517747, 51.47518169 ] } },
{ "type": "Feature", "properties": { "name": "Heston Library", "address1": null, "address2": null, "address3": null, "borough_name": "Hounslow", "website": null, "os_addressbase_uprn": 100000000000.0, "borough_code": "E09000018", "ward_2022_name": "Heston Central", "ward_2022_code": "E05013617", "latitude": 51.4853629, "longitude": -0.373872389, "easting": 513005.214, "northing": 177521.2757 }, "geometry": { "type": "Point", "coordinates": [ -0.373872389, 51.4853629 ] } },
{ "type": "Feature", "properties": { "name": "Brandon Library", "address1": null, "address2": null, "address3": null, "borough_name": "Southwark", "website": null, "os_addressbase_uprn": 200000000000.0, "borough_code": "E09000028", "ward_2022_name": "Newington", "ward_2022_code": "E05011105", "latitude": 51.4822063, "longitude": -0.101346625, "easting": 531935.3891, "northing": 177625.6205 }, "geometry": { "type": "Point", "coordinates": [ -0.101346625, 51.4822063 ] } },
{ "type": "Feature", "properties": { "name": "Charlton Library", "address1": null, "address2": null, "address3": null, "borough_name": "Greenwich", "website": null, "os_addressbase_uprn": 100000000000.0, "borough_code": "E09000011", "ward_2022_name": "Charlton Village & Riverside", "ward_2022_code": "E05014075", "latitude": 51.47996113, "longitude": 0.038778646, "easting": 541671.5753, "northing": 177637.6376 }, "geometry": { "type": "Point", "coordinates": [ 0.038778646, 51.47996113 ] } },
{ "type": "Feature", "properties": { "name": "Brentford Library ", "address1": null, "address2": null, "address3": null, "borough_name": "Hounslow", "website": null, "os_addressbase_uprn": 100000000000.0, "borough_code": "E09000018", "ward_2022_name": "Brentford West", "ward_2022_code": "E05013608", "latitude": 51.48610093, "longitude": -0.306007544, "easting": 517715.1487, "northing": 177710.1617 }, "geometry": { "type": "Point", "coordinates": [ -0.306007544, 51.48610093 ] } },
{ "type": "Feature", "properties": { "name": "Erith Library", "address1": null, "address2": null, "address3": null, "borough_name": "Bexley", "website": null, "os_addressbase_uprn": 10023303354.0, "borough_code": "E09000004", "ward_2022_name": "Slade Green & Northend", "ward_2022_code": "E05011231", "latitude": 51.47860538, "longitude": 0.182997078, "easting": 551689.767, "northing": 177775.648 }, "geometry": { "type": "Point", "coordinates": [ 0.182997078, 51.47860538 ] } },
{ "type": "Feature", "properties": { "name": "Chelsea Library", "address1": null, "address2": null, "address3": null, "borough_name": "Kensington and Chelsea", "website": null, "os_addressbase_uprn": 217105143.0, "borough_code": "E09000020", "ward_2022_name": "Royal Hospital", "ward_2022_code": "E05009403", "latitude": 51.48695911, "longitude": -0.166593622, "easting": 527391.9073, "northing": 178038.6927 }, "geometry": { "type": "Point", "coordinates": [ -0.166593622, 51.48695911 ] } },
{ "type": "Feature", "properties": { "name": "Greenwich Centre Library", "address1": null, "address2": null, "address3": null, "borough_name": "Greenwich", "website": null, "os_addressbase_uprn": 10010254284.0, "borough_code": "E09000011", "ward_2022_name": "East Greenwich", "ward_2022_code": "E05014076", "latitude": 51.48507784, "longitude": 0.009978276, "easting": 539656.1873, "northing": 178151.3233 }, "geometry": { "type": "Point", "coordinates": [ 0.009978276, 51.48507784 ] } },
{ "type": "Feature", "properties": { "name": "Pimlico Library", "address1": null, "address2": null, "address3": null, "borough_name": "Westminster", "website": null, "os_addressbase_uprn": 10033620911.0, "borough_code": "E09000033", "ward_2022_name": "Pimlico South", "ward_2022_code": "E05013803", "latitude": 51.48766566, "longitude": -0.135592046, "easting": 529542.1996000001, "northing": 178171.6115 }, "geometry": { "type": "Point", "coordinates": [ -0.135592046, 51.48766566 ] } },
{ "type": "Feature", "properties": { "name": "Upper Belvedere Community Library", "address1": null, "address2": null, "address3": null, "borough_name": "Bexley", "website": null, "os_addressbase_uprn": 100000000000.0, "borough_code": "E09000004", "ward_2022_name": "Belvedere", "ward_2022_code": "E05011218", "latitude": 51.4834101, "longitude": 0.14685388, "easting": 549164.3806, "northing": 178235.686 }, "geometry": { "type": "Point", "coordinates": [ 0.14685388, 51.4834101 ] } },
{ "type": "Feature", "properties": { "name": "Durning", "address1": null, "address2": null, "address3": null, "borough_name": "Lambeth", "website": null, "os_addressbase_uprn": 100000000000.0, "borough_code": "E09000022", "ward_2022_name": "Kennington", "ward_2022_code": "E05014105", "latitude": 51.48827569, "longitude": -0.108499154, "easting": 531421.3427, "northing": 178287.691 }, "geometry": { "type": "Point", "coordinates": [ -0.108499154, 51.48827569 ] } },
{ "type": "Feature", "properties": { "name": "Brompton Library", "address1": null, "address2": null, "address3": null, "borough_name": "Kensington and Chelsea", "website": null, "os_addressbase_uprn": 217060921.0, "borough_code": "E09000020", "ward_2022_name": "Redcliffe", "ward_2022_code": "E05009402", "latitude": 51.48956716, "longitude": -0.186830684, "easting": 525979.754, "northing": 178293.7259 }, "geometry": { "type": "Point", "coordinates": [ -0.186830684, 51.48956716 ] } },
{ "type": "Feature", "properties": { "name": "Chiswick Library", "address1": null, "address2": null, "address3": null, "borough_name": "Hounslow", "website": null, "os_addressbase_uprn": 200000000000.0, "borough_code": "E09000018", "ward_2022_name": "Chiswick Gunnersbury", "ward_2022_code": "E05013609", "latitude": 51.49118486, "longitude": -0.259517611, "easting": 520929.403, "northing": 178351.176 }, "geometry": { "type": "Point", "coordinates": [ -0.259517611, 51.49118486 ] } },
{ "type": "Feature", "properties": { "name": "Plumstead Library", "address1": null, "address2": null, "address3": null, "borough_name": "Greenwich", "website": null, "os_addressbase_uprn": 100000000000.0, "borough_code": "E09000011", "ward_2022_name": "Plumstead & Glyndon", "ward_2022_code": "E05014087", "latitude": 51.48585252, "longitude": 0.097888361, "easting": 545756.9976, "northing": 178408.722 }, "geometry": { "type": "Point", "coordinates": [ 0.097888361, 51.48585252 ] } },
{ "type": "Feature", "properties": { "name": "Avonmore Library and Neighbourhood Centre", "address1": null, "address2": null, "address3": null, "borough_name": "Hammersmith and Fulham", "website": null, "os_addressbase_uprn": 34058302.0, "borough_code": "E09000013", "ward_2022_name": "Avonmore", "ward_2022_code": "E05013734", "latitude": 51.49206749, "longitude": -0.205547084, "easting": 524673.6104, "northing": 178539.7561 }, "geometry": { "type": "Point", "coordinates": [ -0.205547084, 51.49206749 ] } },
{ "type": "Feature", "properties": { "name": "Pepys community library service", "address1": null, "address2": null, "address3": null, "borough_name": "Lewisham", "website": null, "os_addressbase_uprn": 100000000000.0, "borough_code": "E09000023", "ward_2022_name": "Evelyn", "ward_2022_code": "E05013721", "latitude": 51.48930584, "longitude": -0.029077129, "easting": 536931.9573, "northing": 178547.7436 }, "geometry": { "type": "Point", "coordinates": [ -0.029077129, 51.48930584 ] } },
{ "type": "Feature", "properties": { "name": "East Street Library", "address1": null, "address2": null, "address3": null, "borough_name": "Southwark", "website": null, "os_addressbase_uprn": 200000000000.0, "borough_code": "E09000028", "ward_2022_name": "South Bermondsey", "ward_2022_code": "E05011116", "latitude": 51.49038632, "longitude": -0.080102591, "easting": 533386.5599, "northing": 178573.7109 }, "geometry": { "type": "Point", "coordinates": [ -0.080102591, 51.49038632 ] } },
{ "type": "Feature", "properties": { "name": "Woolwich Library", "address1": null, "address2": null, "address3": null, "borough_name": "Greenwich", "website": null, "os_addressbase_uprn": 10010239328.0, "borough_code": "E09000011", "ward_2022_name": "Woolwich Arsenal", "ward_2022_code": "E05014092", "latitude": 51.48875521, "longitude": 0.067021338, "easting": 543604.9412, "northing": 178670.5409 }, "geometry": { "type": "Point", "coordinates": [ 0.067021338, 51.48875521 ] } },
{ "type": "Feature", "properties": { "name": "Victoria Library", "address1": null, "address2": null, "address3": null, "borough_name": "Westminster", "website": null, "os_addressbase_uprn": 10033616882.0, "borough_code": "E09000033", "ward_2022_name": "Pimlico North", "ward_2022_code": "E05013802", "latitude": 51.49239532, "longitude": -0.146262996, "easting": 528788.0578, "northing": 178678.7453 }, "geometry": { "type": "Point", "coordinates": [ -0.146262996, 51.49239532 ] } },
{ "type": "Feature", "properties": { "name": "Harlington Library", "address1": null, "address2": null, "address3": null, "borough_name": "Hillingdon", "website": null, "os_addressbase_uprn": 10003001185.0, "borough_code": "E09000017", "ward_2022_name": "Pinkwell", "ward_2022_code": "E05013576", "latitude": 51.49708916, "longitude": -0.434933798, "easting": 508737.8681, "northing": 178732.8378 }, "geometry": { "type": "Point", "coordinates": [ -0.434933798, 51.49708916 ] } },
{ "type": "Feature", "properties": { "name": "Hammersmith", "address1": null, "address2": null, "address3": null, "borough_name": "Hammersmith and Fulham", "website": null, "os_addressbase_uprn": 34027231.0, "borough_code": "E09000013", "ward_2022_name": "Brook Green", "ward_2022_code": "E05013735", "latitude": 51.4940733, "longitude": -0.222094745, "easting": 523519.4818, "northing": 178734.7818 }, "geometry": { "type": "Point", "coordinates": [ -0.222094745, 51.4940733 ] } },
{ "type": "Feature", "properties": { "name": "Blue Anchor Library", "address1": null, "address2": null, "address3": null, "borough_name": "Southwark", "website": null, "os_addressbase_uprn": 200000000000.0, "borough_code": "E09000028", "ward_2022_name": "South Bermondsey", "ward_2022_code": "E05011116", "latitude": 51.49237424, "longitude": -0.062081863, "easting": 534631.6981, "northing": 178827.7425 }, "geometry": { "type": "Point", "coordinates": [ -0.062081863, 51.49237424 ] } },
{ "type": "Feature", "properties": { "name": "Newington Temporary Library", "address1": null, "address2": null, "address3": null, "borough_name": "Southwark", "website": null, "os_addressbase_uprn": 10093341252.0, "borough_code": "E09000028", "ward_2022_name": "North Walworth", "ward_2022_code": "E05011107", "latitude": 51.49344456, "longitude": -0.096953397, "easting": 532207.9415, "northing": 178883.245 }, "geometry": { "type": "Point", "coordinates": [ -0.096953397, 51.49344456 ] } },
{ "type": "Feature", "properties": { "name": "Northfields Library", "address1": null, "address2": null, "address3": null, "borough_name": "Ealing", "website": null, "os_addressbase_uprn": 12004049.0, "borough_code": "E09000009", "ward_2022_name": "Northfield", "ward_2022_code": "E05013530", "latitude": 51.49852209, "longitude": -0.312582853, "easting": 517226.7871, "northing": 179080.8963 }, "geometry": { "type": "Point", "coordinates": [ -0.312582853, 51.49852209 ] } },
{ "type": "Feature", "properties": { "name": "Express Library", "address1": null, "address2": null, "address3": null, "borough_name": "Westminster", "website": null, "os_addressbase_uprn": 100000000000.0, "borough_code": "E09000033", "ward_2022_name": "St James's", "ward_2022_code": "E05013806", "latitude": 51.49704271, "longitude": -0.128567805, "easting": 530003.1881, "northing": 179226.7901 }, "geometry": { "type": "Point", "coordinates": [ -0.128567805, 51.49704271 ] } },
{ "type": "Feature", "properties": { "name": "Abbey Wood Library", "address1": null, "address2": null, "address3": null, "borough_name": "Greenwich", "website": null, "os_addressbase_uprn": 10010232562.0, "borough_code": "E09000011", "ward_2022_name": "Abbey Wood", "ward_2022_code": "E05014072", "latitude": 51.49324188, "longitude": 0.111800593, "easting": 546699.1318, "northing": 179258.1857 }, "geometry": { "type": "Point", "coordinates": [ 0.111800593, 51.49324188 ] } },
{ "type": "Feature", "properties": { "name": "Cubitt Town library", "address1": null, "address2": null, "address3": null, "borough_name": "Tower Hamlets", "website": null, "os_addressbase_uprn": 6081796.0, "borough_code": "E09000030", "ward_2022_name": "Blackwall & Cubitt Town", "ward_2022_code": "E05009318", "latitude": 51.49546216, "longitude": -0.010181399, "easting": 538225.0984, "northing": 179267.8324 }, "geometry": { "type": "Point", "coordinates": [ -0.010181399, 51.49546216 ] } },
{ "type": "Feature", "properties": { "name": "Waterloo", "address1": null, "address2": null, "address3": null, "borough_name": "Lambeth", "website": null, "os_addressbase_uprn": 100000000000.0, "borough_code": "E09000022", "ward_2022_name": "Waterloo & South Bank", "ward_2022_code": "E05014118", "latitude": 51.49766755, "longitude": -0.110329276, "easting": 531267.3254, "northing": 179328.7928 }, "geometry": { "type": "Point", "coordinates": [ -0.110329276, 51.49766755 ] } },
{ "type": "Feature", "properties": { "name": "Canada Water Library", "address1": null, "address2": null, "address3": null, "borough_name": "Southwark", "website": null, "os_addressbase_uprn": 10090284129.0, "borough_code": "E09000028", "ward_2022_name": "Rotherhithe", "ward_2022_code": "E05011112", "latitude": 51.49729578, "longitude": -0.047564977, "easting": 535624.8009, "northing": 179401.8073 }, "geometry": { "type": "Point", "coordinates": [ -0.047564977, 51.49729578 ] } },
{ "type": "Feature", "properties": { "name": "Southall Library (Dominion Centre and Library)", "address1": null, "address2": null, "address3": null, "borough_name": "Ealing", "website": null, "os_addressbase_uprn": 12020455.0, "borough_code": "E09000009", "ward_2022_name": "Southall Green", "ward_2022_code": "E05013538", "latitude": 51.50287467, "longitude": -0.377570641, "easting": 512705.29, "northing": 179462.9579 }, "geometry": { "type": "Point", "coordinates": [ -0.377570641, 51.50287467 ] } },
{ "type": "Feature", "properties": { "name": "Kensington Central Library", "address1": null, "address2": null, "address3": null, "borough_name": "Kensington and Chelsea", "website": null, "os_addressbase_uprn": 217125485.0, "borough_code": "E09000020", "ward_2022_name": "Queen's Gate", "ward_2022_code": "E05009401", "latitude": 51.50090763, "longitude": -0.19283156, "easting": 525532.0152, "northing": 179544.506 }, "geometry": { "type": "Point", "coordinates": [ -0.19283156, 51.50090763 ] } },
{ "type": "Feature", "properties": { "name": "West Drayton Library", "address1": null, "address2": null, "address3": null, "borough_name": "Hillingdon", "website": null, "os_addressbase_uprn": 100000000000.0, "borough_code": "E09000017", "ward_2022_name": "West Drayton", "ward_2022_code": "E05013581", "latitude": 51.50520608, "longitude": -0.468693946, "easting": 506375.5487, "northing": 179585.9132 }, "geometry": { "type": "Point", "coordinates": [ -0.468693946, 51.50520608 ] } },
{ "type": "Feature", "properties": { "name": "Askew Road", "address1": null, "address2": null, "address3": null, "borough_name": "Hammersmith and Fulham", "website": null, "os_addressbase_uprn": 34011906.0, "borough_code": "E09000013", "ward_2022_name": "Coningham", "ward_2022_code": "E05013737", "latitude": 51.50317005, "longitude": -0.24146864, "easting": 522150.3296, "northing": 179713.8908 }, "geometry": { "type": "Point", "coordinates": [ -0.24146864, 51.50317005 ] } },
{ "type": "Feature", "properties": { "name": "John Harvard Library", "address1": null, "address2": null, "address3": null, "borough_name": "Southwark", "website": null, "os_addressbase_uprn": 200000000000.0, "borough_code": "E09000028", "ward_2022_name": "Chaucer", "ward_2022_code": "E05011098", "latitude": 51.50125566, "longitude": -0.09032367, "easting": 532645.4736, "northing": 179763.8235 }, "geometry": { "type": "Point", "coordinates": [ -0.09032367, 51.50125566 ] } },
{ "type": "Feature", "properties": { "name": "Botwell Green Library", "address1": null, "address2": null, "address3": null, "borough_name": "Hillingdon", "website": null, "os_addressbase_uprn": 10022805611.0, "borough_code": "E09000017", "ward_2022_name": "Hayes Town", "ward_2022_code": "E05013569", "latitude": 51.50797249, "longitude": -0.416286829, "easting": 510006.0272, "northing": 179970.9804 }, "geometry": { "type": "Point", "coordinates": [ -0.416286829, 51.50797249 ] } },
{ "type": "Feature", "properties": { "name": "Acton Town Hall Library", "address1": null, "address2": null, "address3": null, "borough_name": "Ealing", "website": null, "os_addressbase_uprn": 12180771.0, "borough_code": "E09000009", "ward_2022_name": "South Acton", "ward_2022_code": "E05013536", "latitude": 51.50589642, "longitude": -0.26632407, "easting": 520418.1379, "northing": 179975.9369 }, "geometry": { "type": "Point", "coordinates": [ -0.26632407, 51.50589642 ] } },
{ "type": "Feature", "properties": { "name": "North Woolwich Library", "address1": null, "address2": null, "address3": null, "borough_name": "Newham", "website": null, "os_addressbase_uprn": 10008995497.0, "borough_code": "E09000025", "ward_2022_name": "Royal Albert", "ward_2022_code": "E05013922", "latitude": 51.50055166, "longitude": 0.064267038, "easting": 543376.7295, "northing": 179976.9019 }, "geometry": { "type": "Point", "coordinates": [ 0.064267038, 51.50055166 ] } },
{ "type": "Feature", "properties": { "name": "Thamesmead Library", "address1": null, "address2": null, "address3": null, "borough_name": "Bexley", "website": null, "os_addressbase_uprn": 100000000000.0, "borough_code": "E09000004", "ward_2022_name": "Thamesmead East", "ward_2022_code": "E05011232", "latitude": 51.49981378, "longitude": 0.124208362, "easting": 547539.1717, "northing": 180013.906 }, "geometry": { "type": "Point", "coordinates": [ 0.124208362, 51.49981378 ] } },
{ "type": "Feature", "properties": { "name": "Idea Store Canary Wharf", "address1": null, "address2": null, "address3": null, "borough_name": "Tower Hamlets", "website": null, "os_addressbase_uprn": 6145802.0, "borough_code": "E09000030", "ward_2022_name": "Blackwall & Cubitt Town", "ward_2022_code": "E05009318", "latitude": 51.50390566, "longitude": -0.013173491, "easting": 537991.9047, "northing": 180201.0897 }, "geometry": { "type": "Point", "coordinates": [ -0.013173491, 51.50390566 ] } },
{ "type": "Feature", "properties": { "name": "West Ealing Library", "address1": null, "address2": null, "address3": null, "borough_name": "Ealing", "website": null, "os_addressbase_uprn": 12002863.0, "borough_code": "E09000009", "ward_2022_name": "Walpole", "ward_2022_code": "E05013541", "latitude": 51.50898637, "longitude": -0.322962116, "easting": 516479.6899, "northing": 180228.0201 }, "geometry": { "type": "Point", "coordinates": [ -0.322962116, 51.50898637 ] } },
{ "type": "Feature", "properties": { "name": "Hanwell Library", "address1": null, "address2": null, "address3": null, "borough_name": "Ealing", "website": null, "os_addressbase_uprn": 12001465.0, "borough_code": "E09000009", "ward_2022_name": "Hanwell Broadway", "ward_2022_code": "E05013525", "latitude": 51.50942108, "longitude": -0.334533647, "easting": 515675.5997, "northing": 180258.0305 }, "geometry": { "type": "Point", "coordinates": [ -0.334533647, 51.50942108 ] } },
{ "type": "Feature", "properties": { "name": "Mayfair Library", "address1": null, "address2": null, "address3": null, "borough_name": "Westminster", "website": null, "os_addressbase_uprn": 100000000000.0, "borough_code": "E09000033", "ward_2022_name": "West End", "ward_2022_code": "E05013808", "latitude": 51.50886039, "longitude": -0.14954367, "easting": 528514.0129, "northing": 180503.9197 }, "geometry": { "type": "Point", "coordinates": [ -0.14954367, 51.50886039 ] } },
{ "type": "Feature", "properties": { "name": "Ealing Central Library", "address1": null, "address2": null, "address3": null, "borough_name": "Ealing", "website": null, "os_addressbase_uprn": 12148296.0, "borough_code": "E09000009", "ward_2022_name": "Ealing Broadway", "ward_2022_code": "E05013520", "latitude": 51.51182412, "longitude": -0.300805858, "easting": 518009.8669, "northing": 180579.0286 }, "geometry": { "type": "Point", "coordinates": [ -0.300805858, 51.51182412 ] } },
{ "type": "Feature", "properties": { "name": "Yiewsley Library", "address1": null, "address2": null, "address3": null, "borough_name": "Hillingdon", "website": null, "os_addressbase_uprn": 100000000000.0, "borough_code": "E09000017", "ward_2022_name": "Yiewsley", "ward_2022_code": "E05013584", "latitude": 51.51464462, "longitude": -0.472499744, "easting": 506089.5023, "northing": 180630.0276 }, "geometry": { "type": "Point", "coordinates": [ -0.472499744, 51.51464462 ] } },
{ "type": "Feature", "properties": { "name": "Notting Hill Gate Library", "address1": null, "address2": null, "address3": null, "borough_name": "Kensington and Chelsea", "website": null, "os_addressbase_uprn": 217105238.0, "borough_code": "E09000020", "ward_2022_name": "Pembridge", "ward_2022_code": "E05009400", "latitude": 51.51076859, "longitude": -0.195818555, "easting": 525297.6597, "northing": 180635.9499 }, "geometry": { "type": "Point", "coordinates": [ -0.195818555, 51.51076859 ] } },
{ "type": "Feature", "properties": { "name": "Charring Cross Library", "address1": null, "address2": null, "address3": null, "borough_name": "Westminster", "website": null, "os_addressbase_uprn": 10033531833.0, "borough_code": "E09000033", "ward_2022_name": "St James's", "ward_2022_code": "E05013806", "latitude": 51.50976289, "longitude": -0.126518762, "easting": 530109.1866, "northing": 180644.9232 }, "geometry": { "type": "Point", "coordinates": [ -0.126518762, 51.50976289 ] } },
{ "type": "Feature", "properties": { "name": "Thamesmere Library", "address1": null, "address2": null, "address3": null, "borough_name": "Greenwich", "website": null, "os_addressbase_uprn": 10010224992.0, "borough_code": "E09000011", "ward_2022_name": "Thamesmead Moorings", "ward_2022_code": "E05014090", "latitude": 51.50721776, "longitude": 0.110795098, "easting": 546584.5001, "northing": 180810.2891 }, "geometry": { "type": "Point", "coordinates": [ 0.110795098, 51.50721776 ] } },
{ "type": "Feature", "properties": { "name": "Idea Store Chrisp Street", "address1": null, "address2": null, "address3": null, "borough_name": "Tower Hamlets", "website": null, "os_addressbase_uprn": 6173963.0, "borough_code": "E09000030", "ward_2022_name": "Poplar", "ward_2022_code": "E05009328", "latitude": 51.51105004, "longitude": -0.012858142, "easting": 537992.2018, "northing": 180996.1119 }, "geometry": { "type": "Point", "coordinates": [ -0.012858142, 51.51105004 ] } },
{ "type": "Feature", "properties": { "name": "North Kensington Library", "address1": null, "address2": null, "address3": null, "borough_name": "Kensington and Chelsea", "website": null, "os_addressbase_uprn": 217048255.0, "borough_code": "E09000020", "ward_2022_name": "Colville", "ward_2022_code": "E05009392", "latitude": 51.51615689, "longitude": -0.207627437, "easting": 524463.5619, "northing": 181215.0087 }, "geometry": { "type": "Point", "coordinates": [ -0.207627437, 51.51615689 ] } },
{ "type": "Feature", "properties": { "name": "Idea Store Watney Market", "address1": null, "address2": null, "address3": null, "borough_name": "Tower Hamlets", "website": null, "os_addressbase_uprn": 6196250.0, "borough_code": "E09000030", "ward_2022_name": "Shadwell", "ward_2022_code": "E05009332", "latitude": 51.51382558, "longitude": -0.055650795, "easting": 535014.7129, "northing": 181224.9996 }, "geometry": { "type": "Point", "coordinates": [ -0.055650795, 51.51382558 ] } },
{ "type": "Feature", "properties": { "name": "Shoe Lane", "address1": null, "address2": null, "address3": null, "borough_name": "City of London", "website": null, "os_addressbase_uprn": 200000000000.0, "borough_code": "E09000001", "ward_2022_name": "Farringdon Within", "ward_2022_code": "E05009304", "latitude": 51.51492977, "longitude": -0.104973389, "easting": 531589.3461, "northing": 181257.9678 }, "geometry": { "type": "Point", "coordinates": [ -0.104973389, 51.51492977 ] } },
{ "type": "Feature", "properties": { "name": "Paddington Library", "address1": null, "address2": null, "address3": null, "borough_name": "Westminster", "website": null, "os_addressbase_uprn": 100000000000.0, "borough_code": "E09000033", "ward_2022_name": "Bayswater", "ward_2022_code": "E05013793", "latitude": 51.5169107, "longitude": -0.187042195, "easting": 525889.7181000001, "northing": 181334.0118 }, "geometry": { "type": "Point", "coordinates": [ -0.187042195, 51.5169107 ] } },
{ "type": "Feature", "properties": { "name": "Artizan Street", "address1": null, "address2": null, "address3": null, "borough_name": "City of London", "website": null, "os_addressbase_uprn": 95511788.0, "borough_code": "E09000001", "ward_2022_name": "Portsoken", "ward_2022_code": "E05009308", "latitude": 51.51514611, "longitude": -0.075183973, "easting": 533655.5685000001, "northing": 181335.9912 }, "geometry": { "type": "Point", "coordinates": [ -0.075183973, 51.51514611 ] } },
{ "type": "Feature", "properties": { "name": "Guildhall Library and City Business Library", "address1": null, "address2": null, "address3": null, "borough_name": "City of London", "website": null, "os_addressbase_uprn": 100000000000.0, "borough_code": "E09000001", "ward_2022_name": "Bassishaw", "ward_2022_code": "E05009290", "latitude": 51.51556142, "longitude": -0.091238833, "easting": 532540.4503, "northing": 181352.976 }, "geometry": { "type": "Point", "coordinates": [ -0.091238833, 51.51556142 ] } },
{ "type": "Feature", "properties": { "name": "Yeading Library", "address1": null, "address2": null, "address3": null, "borough_name": "Hillingdon", "website": null, "os_addressbase_uprn": 100000000000.0, "borough_code": "E09000017", "ward_2022_name": "Belmore", "ward_2022_code": "E05013564", "latitude": 51.52036818, "longitude": -0.402580015, "easting": 510927.1176, "northing": 181370.1437 }, "geometry": { "type": "Point", "coordinates": [ -0.402580015, 51.52036818 ] } },
{ "type": "Feature", "properties": { "name": "Jubilee Gardens Library", "address1": null, "address2": null, "address3": null, "borough_name": "Ealing", "website": null, "os_addressbase_uprn": 12000640.0, "borough_code": "E09000009", "ward_2022_name": "Lady Margaret", "ward_2022_code": "E05013526", "latitude": 51.52072747, "longitude": -0.367926306, "easting": 513330.3418, "northing": 181463.1623 }, "geometry": { "type": "Point", "coordinates": [ -0.367926306, 51.52072747 ] } },
{ "type": "Feature", "properties": { "name": "Custom House Library", "address1": null, "address2": null, "address3": null, "borough_name": "Newham", "website": null, "os_addressbase_uprn": 10008990024.0, "borough_code": "E09000025", "ward_2022_name": "Custom House", "ward_2022_code": "E05013908", "latitude": 51.51466945, "longitude": 0.033005735, "easting": 541163.4387000001, "northing": 181486.0534 }, "geometry": { "type": "Point", "coordinates": [ 0.033005735, 51.51466945 ] } },
{ "type": "Feature", "properties": { "name": "Beckton Library", "address1": null, "address2": null, "address3": null, "borough_name": "Newham", "website": null, "os_addressbase_uprn": 10008997116.0, "borough_code": "E09000025", "ward_2022_name": "Beckton", "ward_2022_code": "E05013904", "latitude": 51.51452083, "longitude": 0.056999433, "easting": 542828.6522, "northing": 181516.0573 }, "geometry": { "type": "Point", "coordinates": [ 0.056999433, 51.51452083 ] } },
{ "type": "Feature", "properties": { "name": "Canning Town Library", "address1": null, "address2": null, "address3": null, "borough_name": "Newham", "website": null, "os_addressbase_uprn": 10008988046.0, "borough_code": "E09000025", "ward_2022_name": "Canning Town North", "ward_2022_code": "E05013906", "latitude": 51.5168551, "longitude": 0.012662185, "easting": 539745.2476, "northing": 181690.0309 }, "geometry": { "type": "Point", "coordinates": [ 0.012662185, 51.5168551 ] } },
{ "type": "Feature", "properties": { "name": "Marylebone Library", "address1": null, "address2": null, "address3": null, "borough_name": "Westminster", "website": null, "os_addressbase_uprn": 100000000000.0, "borough_code": "E09000033", "ward_2022_name": "Marylebone", "ward_2022_code": "E05013801", "latitude": 51.52012163, "longitude": -0.149058338, "easting": 528516.0016, "northing": 181757.0368 }, "geometry": { "type": "Point", "coordinates": [ -0.149058338, 51.52012163 ] } },
{ "type": "Feature", "properties": { "name": "Barbican", "address1": null, "address2": null, "address3": null, "borough_name": "City of London", "website": null, "os_addressbase_uprn": 200000000000.0, "borough_code": "E09000001", "ward_2022_name": "Cripplegate", "ward_2022_code": "E05009302", "latitude": 51.51944948, "longitude": -0.092517837, "easting": 532440.4365, "northing": 181783.0158 }, "geometry": { "type": "Point", "coordinates": [ -0.092517837, 51.51944948 ] } },
{ "type": "Feature", "properties": { "name": "Idea Store Whitechapel", "address1": null, "address2": null, "address3": null, "borough_name": "Tower Hamlets", "website": null, "os_addressbase_uprn": 6000711.0, "borough_code": "E09000030", "ward_2022_name": "Whitechapel", "ward_2022_code": "E05009336", "latitude": 51.51927063, "longitude": -0.056427971, "easting": 534944.699, "northing": 181829.0652 }, "geometry": { "type": "Point", "coordinates": [ -0.056427971, 51.51927063 ] } },
{ "type": "Feature", "properties": { "name": "Holborn Library", "address1": null, "address2": null, "address3": null, "borough_name": "Camden", "website": null, "os_addressbase_uprn": 5082117.0, "borough_code": "E09000007", "ward_2022_name": "Holborn & Covent Garden", "ward_2022_code": "E05013662", "latitude": 51.52067122, "longitude": -0.11412, "easting": 530938.2693, "northing": 181880.0302 }, "geometry": { "type": "Point", "coordinates": [ -0.11412, 51.52067122 ] } },
{ "type": "Feature", "properties": { "name": "Hayes End Library", "address1": null, "address2": null, "address3": null, "borough_name": "Hillingdon", "website": null, "os_addressbase_uprn": 100000000000.0, "borough_code": "E09000017", "ward_2022_name": "Charville", "ward_2022_code": "E05013565", "latitude": 51.52547573, "longitude": -0.434551689, "easting": 508696.8816, "northing": 181890.1992 }, "geometry": { "type": "Point", "coordinates": [ -0.434551689, 51.52547573 ] } },
{ "type": "Feature", "properties": { "name": "Little Venice Sports Centre Library", "address1": null, "address2": null, "address3": null, "borough_name": "Westminster", "website": null, "os_addressbase_uprn": 10033612553.0, "borough_code": "E09000033", "ward_2022_name": "Little Venice", "ward_2022_code": "E05013799", "latitude": 51.52203057, "longitude": -0.175608347, "easting": 526668.7982, "northing": 181923.0635 }, "geometry": { "type": "Point", "coordinates": [ -0.175608347, 51.52203057 ] } },
{ "type": "Feature", "properties": { "name": "Church Street Library", "address1": null, "address2": null, "address3": null, "borough_name": "Westminster", "website": null, "os_addressbase_uprn": 10033532267.0, "borough_code": "E09000033", "ward_2022_name": "Church Street", "ward_2022_code": "E05013794", "latitude": 51.52252362, "longitude": -0.168582114, "easting": 527154.8507, "northing": 181990.0662 }, "geometry": { "type": "Point", "coordinates": [ -0.168582114, 51.52252362 ] } },
{ "type": "Feature", "properties": { "name": "Kensal Library", "address1": null, "address2": null, "address3": null, "borough_name": "Kensington and Chelsea", "website": null, "os_addressbase_uprn": 217035223.0, "borough_code": "E09000020", "ward_2022_name": "Golborne", "ward_2022_code": "E05009396", "latitude": 51.52333382, "longitude": -0.205283983, "easting": 524606.5699, "northing": 182017.0836 }, "geometry": { "type": "Point", "coordinates": [ -0.205283983, 51.52333382 ] } },
{ "type": "Feature", "properties": { "name": "Rainham Library", "address1": null, "address2": null, "address3": null, "borough_name": "Havering", "website": null, "os_addressbase_uprn": 10024389958.0, "borough_code": "E09000016", "ward_2022_name": "Rainham & Wennington", "ward_2022_code": "E05013979", "latitude": 51.51675181, "longitude": 0.192670878, "easting": 552234.2364000001, "northing": 182037.3937 }, "geometry": { "type": "Point", "coordinates": [ 0.192670878, 51.51675181 ] } },
{ "type": "Feature", "properties": { "name": "Pitshanger Library", "address1": null, "address2": null, "address3": null, "borough_name": "Ealing", "website": null, "os_addressbase_uprn": 12132976.0, "borough_code": "E09000009", "ward_2022_name": "Pitshanger", "ward_2022_code": "E05013535", "latitude": 51.52539097, "longitude": -0.31235373, "easting": 517173.751, "northing": 182069.1958 }, "geometry": { "type": "Point", "coordinates": [ -0.31235373, 51.52539097 ] } },
{ "type": "Feature", "properties": { "name": "Maida Vale Library", "address1": null, "address2": null, "address3": null, "borough_name": "Westminster", "website": null, "os_addressbase_uprn": 100000000000.0, "borough_code": "E09000033", "ward_2022_name": "Westbourne", "ward_2022_code": "E05013809", "latitude": 51.52416055, "longitude": -0.188859128, "easting": 525743.6947, "northing": 182137.089 }, "geometry": { "type": "Point", "coordinates": [ -0.188859128, 51.52416055 ] } },
{ "type": "Feature", "properties": { "name": "Local History Library", "address1": null, "address2": null, "address3": null, "borough_name": "Tower Hamlets", "website": null, "os_addressbase_uprn": 6033654.0, "borough_code": "E09000030", "ward_2022_name": "Bethnal Green", "ward_2022_code": "E05009317", "latitude": 51.52330884, "longitude": -0.040757515, "easting": 536019.8087000001, "northing": 182307.1136 }, "geometry": { "type": "Point", "coordinates": [ -0.040757515, 51.52330884 ] } },
{ "type": "Feature", "properties": { "name": "Queen's Park library", "address1": null, "address2": null, "address3": null, "borough_name": "Kensington and Chelsea", "website": null, "os_addressbase_uprn": 100000000000.0, "borough_code": "E09000020", "ward_2022_name": "Golborne", "ward_2022_code": "E05009396", "latitude": 51.52651654, "longitude": -0.209340014, "easting": 524316.5339, "northing": 182364.1167 }, "geometry": { "type": "Point", "coordinates": [ -0.209340014, 51.52651654 ] } },
{ "type": "Feature", "properties": { "name": "Greenford Library", "address1": null, "address2": null, "address3": null, "borough_name": "Ealing", "website": null, "os_addressbase_uprn": 12001186.0, "borough_code": "E09000009", "ward_2022_name": "Greenford Broadway", "ward_2022_code": "E05013523", "latitude": 51.52930578, "longitude": -0.353676795, "easting": 514297.4318, "northing": 182439.2575 }, "geometry": { "type": "Point", "coordinates": [ -0.353676795, 51.52930578 ] } },
{ "type": "Feature", "properties": { "name": "Finsbury Library", "address1": null, "address2": null, "address3": null, "borough_name": "Islington", "website": null, "os_addressbase_uprn": 5300084848.0, "borough_code": "E09000019", "ward_2022_name": "Clerkenwell", "ward_2022_code": "E05013702", "latitude": 51.52597704, "longitude": -0.102943118, "easting": 531698.3506, "northing": 182490.0806 }, "geometry": { "type": "Point", "coordinates": [ -0.102943118, 51.52597704 ] } },
{ "type": "Feature", "properties": { "name": "Bethnal Green library", "address1": null, "address2": null, "address3": null, "borough_name": "Tower Hamlets", "website": null, "os_addressbase_uprn": 6036905.0, "borough_code": "E09000030", "ward_2022_name": "Bethnal Green", "ward_2022_code": "E05009317", "latitude": 51.52592691, "longitude": -0.052150698, "easting": 535221.7186, "northing": 182577.1598 }, "geometry": { "type": "Point", "coordinates": [ -0.052150698, 51.52592691 ] } },
{ "type": "Feature", "properties": { "name": "Charville Library", "address1": null, "address2": null, "address3": null, "borough_name": "Hillingdon", "website": null, "os_addressbase_uprn": 100000000000.0, "borough_code": "E09000017", "ward_2022_name": "Charville", "ward_2022_code": "E05013565", "latitude": 51.53458782, "longitude": -0.425961931, "easting": 509270.9384, "northing": 182916.3177 }, "geometry": { "type": "Point", "coordinates": [ -0.425961931, 51.53458782 ] } },
{ "type": "Feature", "properties": { "name": "Shoreditch Library", "address1": null, "address2": null, "address3": null, "borough_name": "Hackney", "website": null, "os_addressbase_uprn": 100000000000.0, "borough_code": "E09000012", "ward_2022_name": "Hoxton East & Shoreditch", "ward_2022_code": "E05009377", "latitude": 51.52992914, "longitude": -0.078323828, "easting": 533394.526, "northing": 182974.1553 }, "geometry": { "type": "Point", "coordinates": [ -0.078323828, 51.52992914 ] } },
{ "type": "Feature", "properties": { "name": "Thames View", "address1": null, "address2": null, "address3": null, "borough_name": "Barking and Dagenham", "website": null, "os_addressbase_uprn": 10091588559.0, "borough_code": "E09000002", "ward_2022_name": "Thames View", "ward_2022_code": "E05014068", "latitude": 51.52735487, "longitude": 0.106154673, "easting": 546198.0775, "northing": 183040.1829 }, "geometry": { "type": "Point", "coordinates": [ 0.106154673, 51.52735487 ] } },
{ "type": "Feature", "properties": { "name": "Plaistow Library", "address1": null, "address2": null, "address3": null, "borough_name": "Newham", "website": null, "os_addressbase_uprn": 46096940.0, "borough_code": "E09000025", "ward_2022_name": "Plaistow North", "ward_2022_code": "E05013918", "latitude": 51.52918631, "longitude": 0.027235955, "easting": 540718.3916, "northing": 183089.1965 }, "geometry": { "type": "Point", "coordinates": [ 0.027235955, 51.52918631 ] } },
{ "type": "Feature", "properties": { "name": "St John's Wood Library", "address1": null, "address2": null, "address3": null, "borough_name": "Westminster", "website": null, "os_addressbase_uprn": 10033532542.0, "borough_code": "E09000033", "ward_2022_name": "Regent's Park", "ward_2022_code": "E05013805", "latitude": 51.53323428, "longitude": -0.17084876, "easting": 526967.8195, "northing": 183177.1796 }, "geometry": { "type": "Point", "coordinates": [ -0.17084876, 51.53323428 ] } },
{ "type": "Feature", "properties": { "name": "Pancras Square Library", "address1": null, "address2": null, "address3": null, "borough_name": "Camden", "website": null, "os_addressbase_uprn": 5172479.0, "borough_code": "E09000007", "ward_2022_name": "King's Cross", "ward_2022_code": "E05013666", "latitude": 51.53331656, "longitude": -0.124801847, "easting": 530161.1742, "northing": 183267.1621 }, "geometry": { "type": "Point", "coordinates": [ -0.124801847, 51.53331656 ] } },
{ "type": "Feature", "properties": { "name": "Camden Town Library", "address1": null, "address2": null, "address3": null, "borough_name": "Camden", "website": null, "os_addressbase_uprn": 5021816.0, "borough_code": "E09000007", "ward_2022_name": "Regent's Park", "ward_2022_code": "E05013668", "latitude": 51.53374045, "longitude": -0.136162072, "easting": 529372.085, "northing": 183294.1711 }, "geometry": { "type": "Point", "coordinates": [ -0.136162072, 51.53374045 ] } },